stop_id,stop_name,normalized
StopArea:OCE71043075,FIGUERES-VILAFANT,figueres vilafant
StopArea:OCE71718010,Barcelone-Sants,barcelone sants
StopArea:OCE71793000,GIRONA,girona
StopArea:OCE71793150,Portbou,portbou
StopArea:OCE80021402,Augsburg Hbf,augsburg hbf
StopArea:OCE80077990,Berlin-Gesundbrunnen,berlin gesundbrunnen
StopArea:OCE80110684,Francfort sur le Main,francfort sur le main
StopArea:OCE80140087,Mannheim Hbf,mannheim hbf
StopArea:OCE80142281,Karlsruhe Hbf,karlsruhe hbf
StopArea:OCE80142778,Baden-Baden,baden baden
StopArea:OCE80142893,Appenweier,appenweier
StopArea:OCE80142901,Legelshurst,legelshurst
StopArea:OCE80142919,Kork,kork
StopArea:OCE80142927,Kehl,kehl
StopArea:OCE80143099,Offenburg,offenburg
StopArea:OCE80143198,Lahr (Schwarzw),lahr schwarzw
StopArea:OCE80143255,Ringsheim,ringsheim
StopArea:OCE80143503,Freiburg (Breisgau) Hbf,freiburg breisgau hbf
StopArea:OCE80144139,Muellheim (Baden),muellheim baden
StopArea:OCE80144154,Neuenburg (Baden),neuenburg baden
StopArea:OCE80160432,Erfurt Hbf,erfurt hbf
StopArea:OCE80190512,Mainz Hbf,mainz hbf
StopArea:OCE80190603,Nierstein,nierstein
StopArea:OCE80190686,Worms Hbf,worms hbf
StopArea:OCE80190736,Frankenthal Hbf,frankenthal hbf
StopArea:OCE80190827,Ludwigshafen (Rhein) Hbf,ludwigshafen rhein hbf
StopArea:OCE80191031,Woerth (Rhein),woerth rhein
StopArea:OCE80191049,Hagenbach,hagenbach
StopArea:OCE80191064,Berg (Pfalz),berg pfalz
StopArea:OCE80194043,Neustadt (Weinstr) Hbf,neustadt weinstr hbf
StopArea:OCE80194209,Maikammer-Kirrweiler,maikammer kirrweiler
StopArea:OCE80194217,Edenkoben,edenkoben
StopArea:OCE80194225,Edesheim (Pfalz),edesheim pfalz
StopArea:OCE80194233,Kn√∂ringen-Essingen,kn ringen essingen
StopArea:OCE80194266,Landau (Pfalz) Hbf,landau pfalz hbf
StopArea:OCE80194308,Insheim,insheim
StopArea:OCE80194316,Rohrbach (Pfalz),rohrbach pfalz
StopArea:OCE80194324,Winden (Pfalz),winden pfalz
StopArea:OCE80194332,Schaidt (Pfalz),schaidt pfalz
StopArea:OCE80196980,Kaiserslautern Hbf,kaiserslautern hbf
StopArea:OCE80197871,Kapsweyer,kapsweyer
StopArea:OCE80203471,Munich,munich
StopArea:OCE80230029,Halle (Saale) Hbf,halle saale hbf
StopArea:OCE80251819,Tr√®ves,tr ves
StopArea:OCE80251850,Konz Mitte,konz mitte
StopArea:OCE80251967,Perl,perl
StopArea:OCE80253914,Sarrebruck,sarrebruck
StopArea:OCE80290346,Stuttgart Hbf,stuttgart hbf
StopArea:OCE80291039,Ulm Hbf,ulm hbf
StopArea:OCE80359331,Steinfeld (Pfalz),steinfeld pfalz
StopArea:OCE80359349,Schweighofen,schweighofen
StopArea:OCE80646133,Maximiliansau Im Ruesten,maximiliansau im ruesten
StopArea:OCE80646141,Neuburg (Rhein),neuburg rhein
StopArea:OCE80659698,Berlin Hbf-Lehrter Bahnhof Nord,berlin hbf lehrter bahnhof nord
StopArea:OCE80659714,Berlin Suedkreuz,berlin suedkreuz
StopArea:OCE80920793,Neustadt (Weinstra√üe) S√ºd,neustadt weinstra ue s d
StopArea:OCE82001000,Luxembourg,luxembourg
StopArea:OCE82002501,Howald,howald
StopArea:OCE82006030,Bettembourg,bettembourg
StopArea:OCE82007104,Luxembourg secteur Hollerich,luxembourg secteur hollerich
StopArea:OCE82007146,Dippach secteur Reckange,dippach secteur reckange
StopArea:OCE82007187,Bascharage secteur Sanem,bascharage secteur sanem
StopArea:OCE82009300,Petange,petange
StopArea:OCE82009407,Rodange,rodange
StopArea:OCE82260018,Bettembourg Gare,bettembourg gare
StopArea:OCE82916015,Luxembourg Gare,luxembourg gare
StopArea:OCE83000356,Turin Porta Susa,turin porta susa
StopArea:OCE83002048,OULX CESANA CLAVIERE SESTRIERE,oulx cesana claviere sestriere
StopArea:OCE83002196,TORINO PORTA NUOVA,torino porta nuova
StopArea:OCE83016451,MILANO PORTA GARIBALDI,milano porta garibaldi
StopArea:OCE83045013,VENTIMIGLIA,ventimiglia
StopArea:OCE85000109,Basel SBB,basel sbb
StopArea:OCE85010009,Zimeysa,zimeysa
StopArea:OCE85010017,La Plaine (Suisse),la plaine suisse
StopArea:OCE85010025,Russin,russin
StopArea:OCE85010033,Satigny,satigny
StopArea:OCE85010066,Meyrin,meyrin
StopArea:OCE85010074,Vernier,vernier
StopArea:OCE85010082,Gen√®ve Cornavin,gen ve cornavin
StopArea:OCE85010116,Les Tuileries,les tuileries
StopArea:OCE85010124,Creux-de-Genthod,creux de genthod
StopArea:OCE85010132,Pont-C√©ard,pont c ard
StopArea:OCE85010140,Mies,mies
StopArea:OCE85010157,Tannay,tannay
StopArea:OCE85010207,Chamb√©sy,chamb sy
StopArea:OCE85010215,Genthod-Bellevue,genthod bellevue
StopArea:OCE85010223,Versoix,versoix
StopArea:OCE85010231,Coppet,coppet
StopArea:OCE85010264,Geneve-Aeroport,geneve aeroport
StopArea:OCE85011031,Vallorbe,vallorbe
StopArea:OCE85011205,Lausanne,lausanne
StopArea:OCE85015008,Martigny,martigny
StopArea:OCE85015610,Vernayaz MC,vernayaz mc
StopArea:OCE85015628,Salvan,salvan
StopArea:OCE85015636,Les Mar√©cottes,les mar cottes
StopArea:OCE85015644,Le Tr√©tien,le tr tien
StopArea:OCE85015651,Finhaut,finhaut
StopArea:OCE85015669,Le Chatelard VS,le chatelard vs
StopArea:OCE85015685,Le Ch√¢telard Fronti√®re,le ch telard fronti re
StopArea:OCE85030007,Zuerich HB,zuerich hb
StopArea:OCE85042150,Travers,travers
StopArea:OCE85042218,Neuchatel,neuchatel
StopArea:OCE85043141,La Chaux-de-Fonds,la chaux de fonds
StopArea:OCE85043158,Le Cr√™t-du-Locle,le cr t du locle
StopArea:OCE85043166,Le Locle,le locle
StopArea:OCE85043216,La Chaux-de-Fonds Les Forges,la chaux de fonds les forges
StopArea:OCE85070003,Bern,bern
StopArea:OCE85161554,Lancy-Pont-Rouge,lancy pont rouge
StopArea:OCE85162727,Gen√®ve-Champel,gen ve champel
StopArea:OCE85162735,Gen√®ve-Eaux-Vives,gen ve eaux vives
StopArea:OCE85162743,Ch√™ne-Bourg,ch ne bourg
StopArea:OCE85162834,Gen√®ve-S√©cheron,gen ve s cheron
StopArea:OCE85171421,Lancy-Bachet,lancy bachet
StopArea:OCE85303032,Les Fumeaux,les fumeaux
StopArea:OCE85303347,La M√©dettaz,la m dettaz
StopArea:OCE85927137,Ch√™ne-Bourg Place Favre,ch ne bourg place favre
StopArea:OCE85928291,Gen√®ve Eaux-Vives Gare,gen ve eaux vives gare
StopArea:OCE87009696,La Douzill√®re,la douzill re
StopArea:OCE87024380,Le Puy-en-Velay Lafayette,le puy en velay lafayette
StopArea:OCE87107409,Vignory Centre,vignory centre
StopArea:OCE87107417,Chaumont H√¥pital,chaumont h pital
StopArea:OCE87107425,Bologne Salle des F√™tes,bologne salle des f tes
StopArea:OCE87107433,Soncourt,soncourt
StopArea:OCE87107458,Gudmont-Centre,gudmont centre
StopArea:OCE87107466,Eurville Mairie,eurville mairie
StopArea:OCE87107474,Saint-Dizier Godard-Jeanson,saint dizier godard jeanson
StopArea:OCE87107482,Chatonrupt,chatonrupt
StopArea:OCE87107490,Fronville Lotissement,fronville lotissement
StopArea:OCE87107508,Marnaval √âglise,marnaval aglise
StopArea:OCE87108829,Sedan Place Calonne,sedan place calonne
StopArea:OCE87109306,Lille Centre Hospitalier R√©gional,lille centre hospitalier r gional
StopArea:OCE87110346,Ervy-le-Ch√¢tel Halles,ervy le ch tel halles
StopArea:OCE87110361,Villeneuve-au-Chemin,villeneuve au chemin
StopArea:OCE87110379,Fays-la-Chapelle,fays la chapelle
StopArea:OCE87111849,Marne-la-Vall√©e Chessy,marne la vall e chessy
StopArea:OCE87111864,Balsi√®ges Bourg,balsi ges bourg
StopArea:OCE87112326,Carignan Rue de la Paix,carignan rue de la paix
StopArea:OCE87112334,W√©,w
StopArea:OCE87112342,Fromy,fromy
StopArea:OCE87112714,Margut Place Trouslard,margut place trouslard
StopArea:OCE87112771,Saint-Hilaire-sous-Romilly,saint hilaire sous romilly
StopArea:OCE87113001,Paris Est,paris est
StopArea:OCE87116137,Longueville,longueville
StopArea:OCE87116517,La Fert√©-sous-Jouarre,la fert sous jouarre
StopArea:OCE87116582,Ch√¢teau-Thierry,ch teau thierry
StopArea:OCE87117119,Auxon √âglise,auxon aglise
StopArea:OCE87117440,Martigny-Les-Gerbonvaux Centre,martigny les gerbonvaux centre
StopArea:OCE87117457,Autreville Centre,autreville centre
StopArea:OCE87117465,Allamps E.S.A.T,allamps e s a t
StopArea:OCE87117499,Hestroff Eglise,hestroff eglise
StopArea:OCE87117507,Vaudreching Bernanos,vaudreching bernanos
StopArea:OCE87117515,Alzing Rue de Brettnach,alzing rue de brettnach
StopArea:OCE87117523,Hargarten-aux-Mines Rue Principale,hargarten aux mines rue principale
StopArea:OCE87117598,Montigny-sur-Chiers Eglise,montigny sur chiers eglise
StopArea:OCE87117606,Lexy Carrefour,lexy carrefour
StopArea:OCE87117689,Hertzing Centre,hertzing centre
StopArea:OCE87117697,B√©bing Route Nationale,b bing route nationale
StopArea:OCE87117903,Bouilly Mairie,bouilly mairie
StopArea:OCE87117911,Chamoy-Carrefour D1/D23,chamoy carrefour d1 d23
StopArea:OCE87117929,Jeugny √âglise,jeugny aglise
StopArea:OCE87117937,Montigny-les-Monts Mairie,montigny les monts mairie
StopArea:OCE87117952,Saint-Jean-de-Bonneval √âglise,saint jean de bonneval aglise
StopArea:OCE87117960,Saint-Phal Monument aux Morts,saint phal monument aux morts
StopArea:OCE87117978,Villery,villery
StopArea:OCE87117986,Neuvy-Sautour Route Nationale,neuvy sautour route nationale
StopArea:OCE87117994,Brienon-sur-Arman√ßon Mairie,brienon sur arman on mairie
StopArea:OCE87118000,Troyes,troyes
StopArea:OCE87118067,Saint-Ly√© Eglise,saint ly eglise
StopArea:OCE87118075,Payns Mairie,payns mairie
StopArea:OCE87118083,Savi√®res  Impasse St-Phal,savi res impasse st phal
StopArea:OCE87118091,Saint-Mesmin Gare SNCF,saint mesmin gare sncf
StopArea:OCE87118117,Vallant-Saint-Georges Mairie,vallant saint georges mairie
StopArea:OCE87118133,Ch√¢tres Salle Polyvalente,ch tres salle polyvalente
StopArea:OCE87118141,Maizi√®res-la-Grande-Paroisse Eglise,maizi res la grande paroisse eglise
StopArea:OCE87118158,Romilly-sur-Seine,romilly sur seine
StopArea:OCE87118182,Marnay-sur-Seine,marnay sur seine
StopArea:OCE87118190,Nogent-sur-Seine,nogent sur seine
StopArea:OCE87118257,Vendeuvre,vendeuvre
StopArea:OCE87118299,Bar-sur-Aube,bar sur aube
StopArea:OCE87118414,Ervy-le-Ch√¢tel Gare,ervy le ch tel gare
StopArea:OCE87130823,Les Cabannes Centre,les cabannes centre
StopArea:OCE87130831,Pamiers Centre,pamiers centre
StopArea:OCE87130849,Merens-Les-Vals,merens les vals
StopArea:OCE87130880,Le Vernet,le vernet
StopArea:OCE87130898,Varilhes Centre,varilhes centre
StopArea:OCE87131961,Brion - Montr√©al-la-Cluse Gare,brion montr al la cluse gare
StopArea:OCE87134387,Auch Le Seilhan,auch le seilhan
StopArea:OCE87137158,Tarascon-sur-Ari√®ge Espace Francois Mitterrand,tarascon sur ari ge espace francois mitterrand
StopArea:OCE87138321,Gaillac-d'Aveyron Bourg,gaillac d aveyron bourg
StopArea:OCE87138339,Severac d'Aveyron Lapanouse,severac d aveyron lapanouse
StopArea:OCE87138362,Onet-le-Ch√¢teau la Roquette,onet le ch teau la roquette
StopArea:OCE87138370,Loubiere Canabols,loubiere canabols
StopArea:OCE87138438,Gaillac-D-Aveyron Lugans,gaillac d aveyron lugans
StopArea:OCE87139089,Albias,albias
StopArea:OCE87139501,Troyes Gare Routi√®re,troyes gare routi re
StopArea:OCE87139527,Barberey-Saint-Sulpice Centre Commercial,barberey saint sulpice centre commercial
StopArea:OCE87139535,Barberey-Saint-Sulpice Route d,barberey saint sulpice route d
StopArea:OCE87139550,Mesgrigny Mairie,mesgrigny mairie
StopArea:OCE87139568,M√©ry-sur-Seine H√¥tel de Ville,m ry sur seine h tel de ville
StopArea:OCE87139584,Maizi√®res-la-Grande-Paroisse Tabac,maizi res la grande paroisse tabac
StopArea:OCE87139659,Troyes Chambre de Commerce,troyes chambre de commerce
StopArea:OCE87139667,Troyes Lombards,troyes lombards
StopArea:OCE87139865,Lirey la Chapelle,lirey la chapelle
StopArea:OCE87139873,Machy,machy
StopArea:OCE87139907,Coursan-en-Othe RN,coursan en othe rn
StopArea:OCE87141002,Nancy,nancy
StopArea:OCE87141010,Jarville-la-Malgrange,jarville la malgrange
StopArea:OCE87141036,Foug,foug
StopArea:OCE87141044,Toul,toul
StopArea:OCE87141051,Fontenoy-sur-Moselle,fontenoy sur moselle
StopArea:OCE87141069,Liverdun,liverdun
StopArea:OCE87141077,Frouard,frouard
StopArea:OCE87141085,Champigneulles,champigneulles
StopArea:OCE87141093,Laneuveville-devant-Nancy,laneuveville devant nancy
StopArea:OCE87141101,Varang√©ville - Saint-Nicolas,varang ville saint nicolas
StopArea:OCE87141119,Dombasle-sur-Meurthe,dombasle sur meurthe
StopArea:OCE87141127,Rosi√®res-aux-Salines,rosi res aux salines
StopArea:OCE87141135,Blainville - Damelevi√®res,blainville damelevi res
StopArea:OCE87141143,Mont-sur-Meurthe,mont sur meurthe
StopArea:OCE87141150,Lun√©ville,lun ville
StopArea:OCE87141200,Einvaux,einvaux
StopArea:OCE87141218,Bayon,bayon
StopArea:OCE87141259,Soulosse Route Nationale,soulosse route nationale
StopArea:OCE87141291,Neufch√¢teau,neufch teau
StopArea:OCE87141374,Saint-Cl√©ment - Laronxe,saint cl ment laronxe
StopArea:OCE87141382,Chenevi√®res,chenevi res
StopArea:OCE87141390,M√©nil - Flin,m nil flin
StopArea:OCE87141408,Azerailles,azerailles
StopArea:OCE87141416,Baccarat,baccarat
StopArea:OCE87141424,Bertrichamps,bertrichamps
StopArea:OCE87141432,Thiaville,thiaville
StopArea:OCE87141473,Houdemont,houdemont
StopArea:OCE87141481,Ludres,ludres
StopArea:OCE87141499,Messein,messein
StopArea:OCE87141507,Neuves-Maisons,neuves maisons
StopArea:OCE87141523,Pont-Saint-Vincent,pont saint vincent
StopArea:OCE87141721,Bl√©nod-l√®s-Toul Les Naux,bl nod l s toul les naux
StopArea:OCE87141739,Bulligny Centre,bulligny centre
StopArea:OCE87141754,Barisey-la-C√¥te Gare,barisey la c te gare
StopArea:OCE87141788,Pompey,pompey
StopArea:OCE87141796,Marbache,marbache
StopArea:OCE87141804,Belleville,belleville
StopArea:OCE87141812,Dieulouard,dieulouard
StopArea:OCE87141820,Pont-√†-Mousson,pont mousson
StopArea:OCE87142000,Chaumont,chaumont
StopArea:OCE87142091,Langres,langres
StopArea:OCE87142109,Lorraine TGV,lorraine tgv
StopArea:OCE87142125,Culmont - Chalindrey,culmont chalindrey
StopArea:OCE87142224,Bologne,bologne
StopArea:OCE87142232,Vignory,vignory
StopArea:OCE87142240,Froncles,froncles
StopArea:OCE87142273,Donjeux,donjeux
StopArea:OCE87143024,Vraincourt,vraincourt
StopArea:OCE87144006,√âpinal,apinal
StopArea:OCE87144014,Saint-Di√©-des-Vosges,saint di des vosges
StopArea:OCE87144030,Docelles-Chenim√©nil Gare,docelles chenim nil gare
StopArea:OCE87144055,Charmes,charmes
StopArea:OCE87144063,Vincey,vincey
StopArea:OCE87144071,Ch√¢tel - Nomexy,ch tel nomexy
StopArea:OCE87144089,Igney,igney
StopArea:OCE87144097,Thaon,thaon
StopArea:OCE87144121,Xertigny,xertigny
StopArea:OCE87144147,Bains-les-Bains,bains les bains
StopArea:OCE87144154,Bruy√®res,bruy res
StopArea:OCE87144212,Mirecourt,mirecourt
StopArea:OCE87144279,Vittel,vittel
StopArea:OCE87144287,Contrex√©ville,contrex ville
StopArea:OCE87144295,Martigny-les-Bains Gare,martigny les bains gare
StopArea:OCE87144303,Lamarche,lamarche
StopArea:OCE87144311,Rozi√®res-sur-Mouzon,rozi res sur mouzon
StopArea:OCE87144345,Provench√®res-sur-Fave,provench res sur fave
StopArea:OCE87144410,Arches,arches
StopArea:OCE87144428,Pouxeux,pouxeux
StopArea:OCE87144436,√âloyes,aloyes
StopArea:OCE87144451,Remiremont,remiremont
StopArea:OCE87144626,Raon-l'√âtape,raon l atape
StopArea:OCE87144642,√âtival-Clairefontaine,atival clairefontaine
StopArea:OCE87144683,Saint-Michel-sur-Meurthe,saint michel sur meurthe
StopArea:OCE87146217,Saint-Nabord,saint nabord
StopArea:OCE87146472,Montrozier Gages Pont,montrozier gages pont
StopArea:OCE87147322,Meuse TGV,meuse tgv
StopArea:OCE87152413,Maussac Place de la Poste,maussac place de la poste
StopArea:OCE87158006,Gouzon Champ de Foire,gouzon champ de foire
StopArea:OCE87159947,Ker Lann,ker lann
StopArea:OCE87165852,Montastruc-la-Conseill√®re RN 88,montastruc la conseill re rn 88
StopArea:OCE87171009,Reims,reims
StopArea:OCE87171272,Reims Maison Blanche,reims maison blanche
StopArea:OCE87171298,Muizon,muizon
StopArea:OCE87171314,Jonchery-sur-Vesle,jonchery sur vesle
StopArea:OCE87171322,Breuil - Romain,breuil romain
StopArea:OCE87171330,Fismes,fismes
StopArea:OCE87171462,Bazancourt,bazancourt
StopArea:OCE87171512,Dormans,dormans
StopArea:OCE87171553,√âpernay,apernay
StopArea:OCE87171561,Ay-Champagne,ay champagne
StopArea:OCE87171579,Avenay,avenay
StopArea:OCE87171587,Germaine,germaine
StopArea:OCE87171595,Rilly-la-Montagne,rilly la montagne
StopArea:OCE87171611,Val-de-Vesle,val de vesle
StopArea:OCE87171629,Prunay,prunay
StopArea:OCE87171645,Sept-Saulx,sept saulx
StopArea:OCE87171702,Aguilcourt - Variscourt,aguilcourt variscourt
StopArea:OCE87171710,Courcy - Brimont,courcy brimont
StopArea:OCE87171728,Loivre,loivre
StopArea:OCE87171736,Guignicourt,guignicourt
StopArea:OCE87171744,Amifontaine,amifontaine
StopArea:OCE87171751,Saint-Erme,saint erme
StopArea:OCE87171769,Coucy-l√®s-Eppes,coucy l s eppes
StopArea:OCE87171926,Champagne-Ardenne TGV,champagne ardenne tgv
StopArea:OCE87172007,Charleville-M√©zi√®res,charleville m zi res
StopArea:OCE87172023,Nouzonville,nouzonville
StopArea:OCE87172031,Joigny-sur-Meuse,joigny sur meuse
StopArea:OCE87172049,Bogny-sur-Meuse,bogny sur meuse
StopArea:OCE87172056,Montherm√©,montherm
StopArea:OCE87172064,Deville,deville
StopArea:OCE87172072,Laifour,laifour
StopArea:OCE87172080,Revin,revin
StopArea:OCE87172098,Fumay,fumay
StopArea:OCE87172106,Haybes,haybes
StopArea:OCE87172114,Vireux-Molhain,vireux molhain
StopArea:OCE87172122,Aubrives,aubrives
StopArea:OCE87172130,Givet,givet
StopArea:OCE87172155,Mohon,mohon
StopArea:OCE87172171,Poix-Terron,poix terron
StopArea:OCE87172189,Lumes,lumes
StopArea:OCE87172213,Nouvion-sur-Meuse,nouvion sur meuse
StopArea:OCE87172221,Vrigne-Meuse,vrigne meuse
StopArea:OCE87172239,Donchery,donchery
StopArea:OCE87172254,Sedan,sedan
StopArea:OCE87172262,Amagne - Lucquy,amagne lucquy
StopArea:OCE87172270,Rethel,rethel
StopArea:OCE87172304,Noyers-Pont-Maugis,noyers pont maugis
StopArea:OCE87172312,Bazeilles,bazeilles
StopArea:OCE87172320,Douzy,douzy
StopArea:OCE87172338,Pouru-Saint-Remy,pouru saint remy
StopArea:OCE87172346,Sachy,sachy
StopArea:OCE87172353,Carignan,carignan
StopArea:OCE87172387,Blagny,blagny
StopArea:OCE87172395,Linay,linay
StopArea:OCE87172411,Margut - Fromy,margut fromy
StopArea:OCE87172700,Remilly-Aillicourt,remilly aillicourt
StopArea:OCE87172858,Anchamps,anchamps
StopArea:OCE87172874,F√©pin,f pin
StopArea:OCE87173302,Wadelincourt,wadelincourt
StopArea:OCE87173401,La Fert√©-sur-Chiers,la fert sur chiers
StopArea:OCE87174003,Ch√¢lons-en-Champagne,ch lons en champagne
StopArea:OCE87174276,Vitry-le-Fran√ßois,vitry le fran ois
StopArea:OCE87174409,Mourmelon-le-Petit,mourmelon le petit
StopArea:OCE87175000,Saint-Dizier,saint dizier
StopArea:OCE87175018,Revigny,revigny
StopArea:OCE87175042,Bar-le-Duc,bar le duc
StopArea:OCE87175067,Nan√ßois - Tronville,nan ois tronville
StopArea:OCE87175091,Joinville,joinville
StopArea:OCE87175109,Curel,curel
StopArea:OCE87175117,Chevillon,chevillon
StopArea:OCE87175240,L√©rouville,l rouville
StopArea:OCE87175257,Commercy,commercy
StopArea:OCE87175778,Verdun,verdun
StopArea:OCE87175794,√âtain,atain
StopArea:OCE87175828,Pagny-sur-Meuse,pagny sur meuse
StopArea:OCE87177170,Laissac Place du Foiral,laissac place du foiral
StopArea:OCE87177360,Communay,communay
StopArea:OCE87177576,Ternay Barbi√®res,ternay barbi res
StopArea:OCE87181016,Saint-Louis la Chauss√©e,saint louis la chauss e
StopArea:OCE87181040,Flaxlanden,flaxlanden
StopArea:OCE87181065,Walheim,walheim
StopArea:OCE87181131,Graffenwald,graffenwald
StopArea:OCE87181222,Colmar Saint-Joseph,colmar saint joseph
StopArea:OCE87181289,Vieux-Thann Zone Industrielle,vieux thann zone industrielle
StopArea:OCE87181552,Saint-Gilles Lyc√©e Haut-Rhin,saint gilles lyc e haut rhin
StopArea:OCE87182014,Colmar,colmar
StopArea:OCE87182055,Mulhouse Dornach,mulhouse dornach
StopArea:OCE87182063,Mulhouse,mulhouse
StopArea:OCE87182071,Rixheim,rixheim
StopArea:OCE87182089,Habsheim,habsheim
StopArea:OCE87182105,Sierentz,sierentz
StopArea:OCE87182113,Bartenheim,bartenheim
StopArea:OCE87182139,Saint-Louis,saint louis
StopArea:OCE87182196,Zillisheim,zillisheim
StopArea:OCE87182204,Illfurth,illfurth
StopArea:OCE87182238,Altkirch,altkirch
StopArea:OCE87182253,Dannemarie,dannemarie
StopArea:OCE87182329,Herrlisheim-pr√®s-Colmar,herrlisheim pr s colmar
StopArea:OCE87182337,Rouffach,rouffach
StopArea:OCE87182345,Logelbach,logelbach
StopArea:OCE87182352,Turckheim,turckheim
StopArea:OCE87182360,Walbach - La Forge,walbach la forge
StopArea:OCE87182378,Wihr-au-Val - Soultzbach,wihr au val soultzbach
StopArea:OCE87182386,Gunsbach - Griesbach,gunsbach griesbach
StopArea:OCE87182394,Munster,munster
StopArea:OCE87182402,Ranspach,ranspach
StopArea:OCE87182410,Cernay,cernay
StopArea:OCE87182543,Luttenbach-pr√®s-Munster,luttenbach pr s munster
StopArea:OCE87182550,Vieux-Thann,vieux thann
StopArea:OCE87182568,Thann,thann
StopArea:OCE87182576,Bitschwiller-l√®s-Thann,bitschwiller l s thann
StopArea:OCE87182584,Willer-sur-Thur,willer sur thur
StopArea:OCE87182592,Moosch,moosch
StopArea:OCE87182600,Saint-Amarin,saint amarin
StopArea:OCE87182618,Wesserling,wesserling
StopArea:OCE87182626,Fellering,fellering
StopArea:OCE87182634,Oderen,oderen
StopArea:OCE87182642,Kruth,kruth
StopArea:OCE87182659,Breitenbach,breitenbach
StopArea:OCE87182667,Lutterbach,lutterbach
StopArea:OCE87182691,Staffelfelden,staffelfelden
StopArea:OCE87182709,Bollwiller,bollwiller
StopArea:OCE87182717,Raedersheim,raedersheim
StopArea:OCE87182725,Merxheim,merxheim
StopArea:OCE87182733,Muhlbach-sur-Munster,muhlbach sur munster
StopArea:OCE87182816,Metzeral,metzeral
StopArea:OCE87182840,Bantzenheim,bantzenheim
StopArea:OCE87182881,Thann Saint-Jacques,thann saint jacques
StopArea:OCE87184002,Belfort-Ville,belfort ville
StopArea:OCE87184200,Bas √âvette,bas avette
StopArea:OCE87184242,Trois Ch√™nes,trois ch nes
StopArea:OCE87184267,Petit-Croix,petit croix
StopArea:OCE87184275,Montreux-Vieux,montreux vieux
StopArea:OCE87184408,M√©roux,m roux
StopArea:OCE87184424,Morvillars,morvillars
StopArea:OCE87184432,Grandvillars,grandvillars
StopArea:OCE87184440,Delle,delle
StopArea:OCE87184507,H√©ricourt,h ricourt
StopArea:OCE87184523,Montb√©liard,montb liard
StopArea:OCE87184531,Voujeaucourt,voujeaucourt
StopArea:OCE87184556,Colombier-Fontaine,colombier fontaine
StopArea:OCE87184572,L'Isle-sur-le-Doubs,l isle sur le doubs
StopArea:OCE87184622,Clerval,clerval
StopArea:OCE87185009,Vesoul,vesoul
StopArea:OCE87185249,Lure,lure
StopArea:OCE87185314,Ronchamp,ronchamp
StopArea:OCE87185330,Saint-Loup-sur-Semouse,saint loup sur semouse
StopArea:OCE87185348,Champagney,champagney
StopArea:OCE87185595,Luxeuil-les-Bains,luxeuil les bains
StopArea:OCE87185629,Aillevillers,aillevillers
StopArea:OCE87187930,B√¢le Saint-Jean,b le saint jean
StopArea:OCE87190801,Loupershouse centre,loupershouse centre
StopArea:OCE87191007,Thionville,thionville
StopArea:OCE87191098,Walygator parc,walygator parc
StopArea:OCE87191106,Maizi√®res-l√®s-Metz,maizi res l s metz
StopArea:OCE87191114,Hagondange,hagondange
StopArea:OCE87191130,Uckange,uckange
StopArea:OCE87191163,Hettange-Grande,hettange grande
StopArea:OCE87191239,Hayange,hayange
StopArea:OCE87191296,Metzeresche Fontaine,metzeresche fontaine
StopArea:OCE87191304,Yutz Poitiers,yutz poitiers
StopArea:OCE87191346,K√©dange Gare,k dange gare
StopArea:OCE87191387,Anzeling,anzeling
StopArea:OCE87191395,Freistroff Passage √Ä Niveau,freistroff passage a niveau
StopArea:OCE87191403,Aboncourt Mairie,aboncourt mairie
StopArea:OCE87191411,Remelfang Giratoire,remelfang giratoire
StopArea:OCE87191601,Basse-Ham,basse ham
StopArea:OCE87191619,Koenigsmacker,koenigsmacker
StopArea:OCE87191627,Malling,malling
StopArea:OCE87191635,Sierck-les-Bains,sierck les bains
StopArea:OCE87191643,Apach,apach
StopArea:OCE87191684,Aubou√©,aubou
StopArea:OCE87191692,Hom√©court,hom court
StopArea:OCE87191700,Joeuf,joeuf
StopArea:OCE87191718,Moyeuvre-Grande,moyeuvre grande
StopArea:OCE87191734,Rombas - Clouange,rombas clouange
StopArea:OCE87191742,Gandrange - Amn√©ville,gandrange amn ville
StopArea:OCE87192039,Metz,metz
StopArea:OCE87192070,Metz Nord,metz nord
StopArea:OCE87192088,Woippy,woippy
StopArea:OCE87192104,Aubecourt Rue Principale,aubecourt rue principale
StopArea:OCE87192120,Lucy Rue des Tilleuls,lucy rue des tilleuls
StopArea:OCE87192138,Chenois Rue Principale,chenois rue principale
StopArea:OCE87192146,Holacourt Rue Principale,holacourt rue principale
StopArea:OCE87192153,Arraincourt Rue Principale,arraincourt rue principale
StopArea:OCE87192179,Racrange Rue de Morhange,racrange rue de morhange
StopArea:OCE87192187,Bermering Eglise,bermering eglise
StopArea:OCE87192195,Marimont-l√®s-B√©nestroff Eglise,marimont l s b nestroff eglise
StopArea:OCE87192203,Peltre,peltre
StopArea:OCE87192211,Courcelles-sur-Nied,courcelles sur nied
StopArea:OCE87192229,Sanry-sur-Nied,sanry sur nied
StopArea:OCE87192237,R√©milly,r milly
StopArea:OCE87192245,Baudrecourt Centre,baudrecourt centre
StopArea:OCE87192252,Lesse Centre,lesse centre
StopArea:OCE87192260,Brulange Rue de Metz,brulange rue de metz
StopArea:OCE87192286,Morhange,morhange
StopArea:OCE87192302,B√©nestroff,b nestroff
StopArea:OCE87192401,Ars-sur-Moselle,ars sur moselle
StopArea:OCE87192419,Ancy-sur-Moselle,ancy sur moselle
StopArea:OCE87192427,Nov√©ant-sur-Moselle,nov ant sur moselle
StopArea:OCE87192435,Onville,onville
StopArea:OCE87192468,Pagny-sur-Moselle,pagny sur moselle
StopArea:OCE87192476,Vandi√®res,vandi res
StopArea:OCE87192658,Baroncourt,baroncourt
StopArea:OCE87192666,Conflans - Jarny,conflans jarny
StopArea:OCE87192724,Hatrize,hatrize
StopArea:OCE87192732,Valleroy - Moineville,valleroy moineville
StopArea:OCE87192880,Ugny Mairie,ugny mairie
StopArea:OCE87193003,Forbach,forbach
StopArea:OCE87193110,Baronville Mairie,baronville mairie
StopArea:OCE87193128,Vahl-l√®s-B√©nestroff Mairie,vahl l s b nestroff mairie
StopArea:OCE87193136,Han-sur-Nied Rue Principale,han sur nied rue principale
StopArea:OCE87193144,Falck Gare,falck gare
StopArea:OCE87193151,Teterchen Rue Jeanne D'Arc,teterchen rue jeanne d arc
StopArea:OCE87193169,Brettnach Centre,brettnach centre
StopArea:OCE87193177,Bouzonville,bouzonville
StopArea:OCE87193219,Merten Centre,merten centre
StopArea:OCE87193250,B√©ning-l√®s-Saint-Avold,b ning l s saint avold
StopArea:OCE87193276,Hombourg-Haut,hombourg haut
StopArea:OCE87193318,Saint-Avold,saint avold
StopArea:OCE87193342,Teting-sur-Nied,teting sur nied
StopArea:OCE87193359,Faulquemont,faulquemont
StopArea:OCE87193383,Herny,herny
StopArea:OCE87193508,Theding All√©e de la For√™t,theding all e de la for t
StopArea:OCE87193516,Far√©bersviller,far bersviller
StopArea:OCE87193524,Farschviller,farschviller
StopArea:OCE87193532,Diebling Centre,diebling centre
StopArea:OCE87193540,Hundling H√¥tel de Ville,hundling h tel de ville
StopArea:OCE87193557,Metzing Centre,metzing centre
StopArea:OCE87193565,Ippling Rue de Sarreguemines,ippling rue de sarreguemines
StopArea:OCE87193607,Welferding Cimeti√®re,welferding cimeti re
StopArea:OCE87193615,Sarreguemines,sarreguemines
StopArea:OCE87193664,Kalhausen Gare,kalhausen gare
StopArea:OCE87193771,Woelfling-l√®s-Sarreguemines,woelfling l s sarreguemines
StopArea:OCE87193789,Rohrbach-l√®s-Bitche,rohrbach l s bitche
StopArea:OCE87193797,Petit-R√©derching,petit r derching
StopArea:OCE87193821,Bitche Ancienne Gare,bitche ancienne gare
StopArea:OCE87193839,Bitche Camp,bitche camp
StopArea:OCE87194001,Longwy,longwy
StopArea:OCE87194019,Ebring Croisement,ebring croisement
StopArea:OCE87194209,Montm√©dy,montm dy
StopArea:OCE87194274,Longuyon,longuyon
StopArea:OCE87194357,Audun-le-Roman,audun le roman
StopArea:OCE87194449,R√©hon La Chapelle,r hon la chapelle
StopArea:OCE87194456,Cons-la-Grandville Centre,cons la grandville centre
StopArea:OCE87194480,Montigny-sur-Chiers la Roche,montigny sur chiers la roche
StopArea:OCE87194498,Viviers-sur-Chiers Mairie,viviers sur chiers mairie
StopArea:OCE87199604,Gros-R√©derching,gros r derching
StopArea:OCE87199612,Reyersviller Schwangerbach,reyersviller schwangerbach
StopArea:OCE87199620,Destry Centre,destry centre
StopArea:OCE87208553,Casino Lacroix Laval,casino lacroix laval
StopArea:OCE87212027,Strasbourg,strasbourg
StopArea:OCE87212100,Mundolsheim,mundolsheim
StopArea:OCE87212118,Vendenheim,vendenheim
StopArea:OCE87212126,Stephansfeld,stephansfeld
StopArea:OCE87212134,Brumath,brumath
StopArea:OCE87212142,Mommenheim,mommenheim
StopArea:OCE87212159,Schwindratzheim,schwindratzheim
StopArea:OCE87212167,Hochfelden,hochfelden
StopArea:OCE87212175,Wilwisheim,wilwisheim
StopArea:OCE87212183,Dettwiller,dettwiller
StopArea:OCE87212191,Strasbourg Roethig,strasbourg roethig
StopArea:OCE87212209,Steinbourg,steinbourg
StopArea:OCE87212225,Saverne,saverne
StopArea:OCE87212241,Graffenstaden,graffenstaden
StopArea:OCE87212258,Geispolsheim,geispolsheim
StopArea:OCE87212266,Fegersheim - Lipsheim,fegersheim lipsheim
StopArea:OCE87212274,Limersheim,limersheim
StopArea:OCE87212308,Bischheim,bischheim
StopArea:OCE87212316,La Wantzenau,la wantzenau
StopArea:OCE87212324,Kilstett,kilstett
StopArea:OCE87212332,Gambsheim,gambsheim
StopArea:OCE87212340,Herrlisheim,herrlisheim
StopArea:OCE87212357,Drusenheim,drusenheim
StopArea:OCE87212365,Sessenheim,sessenheim
StopArea:OCE87212373,Rountzenheim,rountzenheim
StopArea:OCE87212407,Roeschwoog,roeschwoog
StopArea:OCE87212415,Roppenheim,roppenheim
StopArea:OCE87212431,Seltz,seltz
StopArea:OCE87212449,Munchhausen,munchhausen
StopArea:OCE87212456,Mothern,mothern
StopArea:OCE87212464,Lauterbourg,lauterbourg
StopArea:OCE87213058,Haguenau,haguenau
StopArea:OCE87213108,Schweighouse-sur-Moder,schweighouse sur moder
StopArea:OCE87213165,Obermodern,obermodern
StopArea:OCE87213207,Mertzwiller,mertzwiller
StopArea:OCE87213223,Gundershoffen,gundershoffen
StopArea:OCE87213231,Reichshoffen Usines,reichshoffen usines
StopArea:OCE87213249,Reichshoffen,reichshoffen
StopArea:OCE87213256,Niederbronn-les-Bains,niederbronn les bains
StopArea:OCE87213298,Bannstein Croisement,bannstein croisement
StopArea:OCE87213405,Walbourg,walbourg
StopArea:OCE87213413,Hoelschloch-Surbourg,hoelschloch surbourg
StopArea:OCE87213421,Soultz-sous-For√™ts,soultz sous for ts
StopArea:OCE87213447,Hoffen,hoffen
StopArea:OCE87213462,Riedseltz,riedseltz
StopArea:OCE87213470,Wissembourg,wissembourg
StopArea:OCE87213603,Marienthal,marienthal
StopArea:OCE87213611,Bischwiller,bischwiller
StopArea:OCE87213660,Kurtzenhouse,kurtzenhouse
StopArea:OCE87213678,Weyersheim,weyersheim
StopArea:OCE87213686,Hoerdt,hoerdt
StopArea:OCE87213744,Wingen-sur-Moder,wingen sur moder
StopArea:OCE87213769,Wimmenau,wimmenau
StopArea:OCE87213785,Ingwiller,ingwiller
StopArea:OCE87213827,Ettendorf,ettendorf
StopArea:OCE87213884,Niedermodern Pont de la Moder,niedermodern pont de la moder
StopArea:OCE87214056,S√©lestat,s lestat
StopArea:OCE87214106,Ebersheim,ebersheim
StopArea:OCE87214114,Kogenheim,kogenheim
StopArea:OCE87214122,Benfeld,benfeld
StopArea:OCE87214130,Matzenheim,matzenheim
StopArea:OCE87214148,Erstein,erstein
StopArea:OCE87214205,Scherwiller,scherwiller
StopArea:OCE87214213,Dambach-la-Ville,dambach la ville
StopArea:OCE87214221,Epfig,epfig
StopArea:OCE87214239,Eichhoffen,eichhoffen
StopArea:OCE87214247,Barr,barr
StopArea:OCE87214254,Gertwiller,gertwiller
StopArea:OCE87214270,Goxwiller,goxwiller
StopArea:OCE87214288,Obernai,obernai
StopArea:OCE87214296,Bischoffsheim,bischoffsheim
StopArea:OCE87214320,Rosheim,rosheim
StopArea:OCE87214338,Dorlisheim,dorlisheim
StopArea:OCE87214502,Lingolsheim,lingolsheim
StopArea:OCE87214528,Entzheim A√©roport,entzheim a roport
StopArea:OCE87214536,Duppigheim,duppigheim
StopArea:OCE87214544,Duttlenheim,duttlenheim
StopArea:OCE87214551,Dachstein,dachstein
StopArea:OCE87214577,Molsheim,molsheim
StopArea:OCE87214585,Mutzig,mutzig
StopArea:OCE87214593,Gresswiller,gresswiller
StopArea:OCE87214627,Heiligenberg - Mollkirch,heiligenberg mollkirch
StopArea:OCE87214635,Urmatt,urmatt
StopArea:OCE87214643,Mullerhof,mullerhof
StopArea:OCE87214650,Lutzelhouse,lutzelhouse
StopArea:OCE87214676,Wisches,wisches
StopArea:OCE87214684,Russ-Hersbach,russ hersbach
StopArea:OCE87214692,Schirmeck - La Broque,schirmeck la broque
StopArea:OCE87214726,Rothau,rothau
StopArea:OCE87214734,Fouday,fouday
StopArea:OCE87214742,Saint-Blaise-la-Roche,saint blaise la roche
StopArea:OCE87214775,Bourg-Bruche,bourg bruche
StopArea:OCE87214783,Saales,saales
StopArea:OCE87214858,Sainte-Marie-aux-Mines Cit√© Scolaire,sainte marie aux mines cit scolaire
StopArea:OCE87214940,Le M√©nilot,le m nilot
StopArea:OCE87214965,Les Forges de Clairvaux,les forges de clairvaux
StopArea:OCE87214981,Daudes,daudes
StopArea:OCE87215012,Sarrebourg,sarrebourg
StopArea:OCE87215079,R√©ding,r ding
StopArea:OCE87215103,Igney - Avricourt,igney avricourt
StopArea:OCE87215111,Avricourt Nouvel Avricourt,avricourt nouvel avricourt
StopArea:OCE87215129,R√©chicourt-le-Ch√¢teau,r chicourt le ch teau
StopArea:OCE87215137,Gondrexange Domaine Ketzing,gondrexange domaine ketzing
StopArea:OCE87215145,Heming Mairie,heming mairie
StopArea:OCE87215160,Lutzelbourg,lutzelbourg
StopArea:OCE87215277,Cutting RD27,cutting rd27
StopArea:OCE87215285,Domnom-l√®s-Dieuze Mairie,domnom l s dieuze mairie
StopArea:OCE87215293,Bassing Croisement,bassing croisement
StopArea:OCE87215301,Nebing Rue Robert Schumann,nebing rue robert schumann
StopArea:OCE87215319,Loudrefing Rue Principale,loudrefing rue principale
StopArea:OCE87215327,Mittersheim Centre,mittersheim centre
StopArea:OCE87215335,Berthelming,berthelming
StopArea:OCE87215350,Sarraltroff Gare,sarraltroff gare
StopArea:OCE87215459,Sarre-Union,sarre union
StopArea:OCE87215483,Schopperten Gare,schopperten gare
StopArea:OCE87215491,Keskastel Gare,keskastel gare
StopArea:OCE87215608,Bar-sur-Aube H√¥pital,bar sur aube h pital
StopArea:OCE87215616,Bar-sur-Aube Piscine,bar sur aube piscine
StopArea:OCE87215624,Ailleville,ailleville
StopArea:OCE87215632,Oermingen,oermingen
StopArea:OCE87215665,Diemeringen,diemeringen
StopArea:OCE87215699,Tieffenbach - Struth,tieffenbach struth
StopArea:OCE87215707,Arsonval,arsonval
StopArea:OCE87215756,Bossancourt,bossancourt
StopArea:OCE87215939,Magny-Fouchard,magny fouchard
StopArea:OCE87215947,Vendeuvre-sur-Barse Centre,vendeuvre sur barse centre
StopArea:OCE87215988,Lusigny-sur-Barse Centre,lusigny sur barse centre
StopArea:OCE87216010,Rouilly-Saint-Loup D21,rouilly saint loup d21
StopArea:OCE87216028,Saint-Julien-les-Villas Mairie,saint julien les villas mairie
StopArea:OCE87216036,Troyes Boulevard du 14 juillet,troyes boulevard du 14 juillet
StopArea:OCE87216051,Troyes Victor Hugo,troyes victor hugo
StopArea:OCE87216119,Romilly-sur-Seine Atelier SNCF,romilly sur seine atelier sncf
StopArea:OCE87216127,Romilly-sur-Seine H√¥pital,romilly sur seine h pital
StopArea:OCE87216135,Pont-sur-Seine Fleming,pont sur seine fleming
StopArea:OCE87216143,Pont-sur-Seine Place Saint-Martin,pont sur seine place saint martin
StopArea:OCE87216150,Nogent-sur-Seine Avenue du G√©naral de Gaulle,nogent sur seine avenue du g naral de gaulle
StopArea:OCE87216168,Nogent-sur-Seine Th√©atre,nogent sur seine th atre
StopArea:OCE87216184,Crancey Route Nationale,crancey route nationale
StopArea:OCE87223263,Lille Europe,lille europe
StopArea:OCE87233262,Serri√®res Mont√©e,serri res mont e
StopArea:OCE87233395,Dav√©zieux √âglise,dav zieux aglise
StopArea:OCE87271007,Paris Gare du Nord,paris gare du nord
StopArea:OCE87271494,A√©roport Charles de Gaulle 2 TGV,a roport charles de gaulle 2 tgv
StopArea:OCE87271536,Dammartin - Juilly - Saint-Mard,dammartin juilly saint mard
StopArea:OCE87271551,Le Plessis-Belleville,le plessis belleville
StopArea:OCE87271577,Nanteuil-le-Haudouin,nanteuil le haudouin
StopArea:OCE87271593,Cr√©py-en-Valois,cr py en valois
StopArea:OCE87271601,Vaumoise,vaumoise
StopArea:OCE87271734,Villers-Cotter√™ts,villers cotter ts
StopArea:OCE87271775,Longpont,longpont
StopArea:OCE87271783,Vierzy,vierzy
StopArea:OCE87271817,Soissons,soissons
StopArea:OCE87271874,Crouy,crouy
StopArea:OCE87271882,Margival,margival
StopArea:OCE87272013,Jaux,jaux
StopArea:OCE87272096,Esches,esches
StopArea:OCE87272195,Longueil-Annel,longueil annel
StopArea:OCE87272286,Corcy,corcy
StopArea:OCE87276006,Creil,creil
StopArea:OCE87276113,Chantilly - Gouvieux,chantilly gouvieux
StopArea:OCE87276204,Laigneville,laigneville
StopArea:OCE87276212,Liancourt - Rantigny,liancourt rantigny
StopArea:OCE87276279,Orry-la-Ville - Coye,orry la ville coye
StopArea:OCE87276303,Longueil-Sainte-Marie,longueil sainte marie
StopArea:OCE87276311,Chevri√®res,chevri res
StopArea:OCE87276329,Pont-Sainte-Maxence,pont sainte maxence
StopArea:OCE87276352,Rieux - Angicourt,rieux angicourt
StopArea:OCE87276378,Villers-Saint-Paul,villers saint paul
StopArea:OCE87276469,Persan - Beaumont,persan beaumont
StopArea:OCE87276618,Montataire,montataire
StopArea:OCE87276691,Compi√®gne,compi gne
StopArea:OCE87276717,Bornel - Belle-√âglise,bornel belle aglise
StopArea:OCE87276725,Chambly,chambly
StopArea:OCE87276733,Le Meux - La Croix-Saint-Ouen,le meux la croix saint ouen
StopArea:OCE87276741,Thourotte,thourotte
StopArea:OCE87276766,Rib√©court,rib court
StopArea:OCE87276774,Ourscamps,ourscamps
StopArea:OCE87276782,Noyon,noyon
StopArea:OCE87278259,M√©rignac Arlac,m rignac arlac
StopArea:OCE87279869,Vou√©court,vou court
StopArea:OCE87279893,Clairvaux D12,clairvaux d12
StopArea:OCE87279901,Bayel √âglise,bayel aglise
StopArea:OCE87279919,Jessains √âglise,jessains aglise
StopArea:OCE87279927,Vauchonvilliers Mairie,vauchonvilliers mairie
StopArea:OCE87279935,La Villeneuve-au-Ch√™ne RN19,la villeneuve au ch ne rn19
StopArea:OCE87279943,Monti√©ramey √âglise,monti ramey aglise
StopArea:OCE87279950,Lusigny-sur-Barse RN19,lusigny sur barse rn19
StopArea:OCE87279968,Montaulin Mairie,montaulin mairie
StopArea:OCE87280016,Rouilly-Saint-Loup la Gu√©rade,rouilly saint loup la gu rade
StopArea:OCE87281006,Dunkerque,dunkerque
StopArea:OCE87281055,Croix l'Allumette,croix l allumette
StopArea:OCE87281071,Calais - Fr√©thun,calais fr thun
StopArea:OCE87281105,Bergues,bergues
StopArea:OCE87281113,Esquelbecq,esquelbecq
StopArea:OCE87281121,Arn√®ke,arn ke
StopArea:OCE87281139,Cassel,cassel
StopArea:OCE87281246,Gravelines,gravelines
StopArea:OCE87281279,Bourbourg,bourbourg
StopArea:OCE87281311,Grande-Synthe,grande synthe
StopArea:OCE87281402,Coudekerque-Branche,coudekerque branche
StopArea:OCE87281410,Pont d'Ardres,pont d ardres
StopArea:OCE87281428,Audruicq,audruicq
StopArea:OCE87281436,Watten - √âperlecques,watten aperlecques
StopArea:OCE87281444,Saint-Omer,saint omer
StopArea:OCE87281451,Renescure,renescure
StopArea:OCE87281469,Ebblinghem,ebblinghem
StopArea:OCE87282335,Perrigny-sur-Loire,perrigny sur loire
StopArea:OCE87282624,Lyon Jean Mac√©,lyon jean mac
StopArea:OCE87286005,Lille Flandres,lille flandres
StopArea:OCE87286062,Hellemmes,hellemmes
StopArea:OCE87286096,Haubourdin,haubourdin
StopArea:OCE87286112,Loos lez Lille,loos lez lille
StopArea:OCE87286146,Armenti√®res,armenti res
StopArea:OCE87286161,Steenwerck,steenwerck
StopArea:OCE87286179,Bailleul,bailleul
StopArea:OCE87286187,La Madeleine,la madeleine
StopArea:OCE87286195,Saint-Andr√©,saint andr
StopArea:OCE87286203,Strazeele,strazeele
StopArea:OCE87286278,P√©renchies,p renchies
StopArea:OCE87286302,Hazebrouck,hazebrouck
StopArea:OCE87286401,Santes,santes
StopArea:OCE87286419,Wavrin,wavrin
StopArea:OCE87286427,La Fontaine,la fontaine
StopArea:OCE87286435,Don - Sainghin,don sainghin
StopArea:OCE87286500,Phalempin,phalempin
StopArea:OCE87286518,Seclin,seclin
StopArea:OCE87286526,Wattignies - Templemars,wattignies templemars
StopArea:OCE87286534,Ronchin,ronchin
StopArea:OCE87286542,Tourcoing,tourcoing
StopArea:OCE87286567,Rosult,rosult
StopArea:OCE87286575,Landas,landas
StopArea:OCE87286583,Orchies,orchies
StopArea:OCE87286609,Nomain,nomain
StopArea:OCE87286625,Templeuve,templeuve
StopArea:OCE87286641,Fretin,fretin
StopArea:OCE87286716,Croix - Wasquehal,croix wasquehal
StopArea:OCE87286732,Roubaix,roubaix
StopArea:OCE87286831,Pont de bois,pont de bois
StopArea:OCE87286849,Lesquin,lesquin
StopArea:OCE87286856,Annappes,annappes
StopArea:OCE87286864,Ascq,ascq
StopArea:OCE87286872,Baisieux,baisieux
StopArea:OCE87287102,Lezennes,lezennes
StopArea:OCE87287128,Mont de Terre,mont de terre
StopArea:OCE87287151,Nieppe,nieppe
StopArea:OCE87287250,Lille Porte de Douai,lille porte de douai
StopArea:OCE87287276,Ennevelin,ennevelin
StopArea:OCE87287292,Nortkerque,nortkerque
StopArea:OCE87287300,Ruminghem,ruminghem
StopArea:OCE87295006,Maubeuge,maubeuge
StopArea:OCE87295014,Jeumont,jeumont
StopArea:OCE87295022,Recquignies,recquignies
StopArea:OCE87295048,Fourmies,fourmies
StopArea:OCE87295055,Anor,anor
StopArea:OCE87295063,Hirson,hirson
StopArea:OCE87295220,Le Cateau,le cateau
StopArea:OCE87295535,Louvroil,louvroil
StopArea:OCE87295543,Sous le Bois,sous le bois
StopArea:OCE87295568,Hautmont,hautmont
StopArea:OCE87295600,Aulnoye-Aymeries,aulnoye aymeries
StopArea:OCE87295642,Landrecies,landrecies
StopArea:OCE87295667,Ors,ors
StopArea:OCE87295709,Sains-du-Nord,sains du nord
StopArea:OCE87295725,Avesnelles,avesnelles
StopArea:OCE87295733,Avesnes-sur-Helpe,avesnes sur helpe
StopArea:OCE87295774,Dompierre,dompierre
StopArea:OCE87295790,Leval,leval
StopArea:OCE87295808,Berlaimont,berlaimont
StopArea:OCE87295857,Le Quesnoy,le quesnoy
StopArea:OCE87296004,Saint-Quentin,saint quentin
StopArea:OCE87296012,Laon,laon
StopArea:OCE87296095,Marle sur Serre,marle sur serre
StopArea:OCE87296129,Vervins,vervins
StopArea:OCE87296145,Origny-en-Thi√©rache,origny en thi rache
StopArea:OCE87296152,Cr√©py - Couvron,cr py couvron
StopArea:OCE87296178,Clacy - Mons,clacy mons
StopArea:OCE87296244,Busigny,busigny
StopArea:OCE87296269,Bohain,bohain
StopArea:OCE87296293,Fresnoy-le-Grand,fresnoy le grand
StopArea:OCE87296418,Montescourt,montescourt
StopArea:OCE87296434,Mennessis,mennessis
StopArea:OCE87296442,Tergnier,tergnier
StopArea:OCE87296459,Appilly,appilly
StopArea:OCE87296566,Anizy - Pinon,anizy pinon
StopArea:OCE87296608,Versigny,versigny
StopArea:OCE87296616,Chauny,chauny
StopArea:OCE87296632,La F√®re,la f re
StopArea:OCE87296871,Flavy-le-Martel,flavy le martel
StopArea:OCE87297051,Viry-Noureuil,viry noureuil
StopArea:OCE87297085,La Bouteille,la bouteille
StopArea:OCE87297119,Verneuil-sur-Serre,verneuil sur serre
StopArea:OCE87297143,Dercy - Froidmont,dercy froidmont
StopArea:OCE87297150,Voyenne,voyenne
StopArea:OCE87297283,Vauxaillon,vauxaillon
StopArea:OCE87297291,Barenton-Bugny,barenton bugny
StopArea:OCE87297515,Les Bons P√®res,les bons p res
StopArea:OCE87297523,Hachette,hachette
StopArea:OCE87297531,Saint-Hilaire,saint hilaire
StopArea:OCE87300822,Belfort - Montb√©liard TGV,belfort montb liard tgv
StopArea:OCE87300863,Besan√ßon Franche-Comt√© TGV,besan on franche comt tgv
StopArea:OCE87303875,Ingersheim Cit√© Scolaire,ingersheim cit scolaire
StopArea:OCE87312587,Troyes Quennedey,troyes quennedey
StopArea:OCE87313049,Longueau,longueau
StopArea:OCE87313056,Corbie,corbie
StopArea:OCE87313064,M√©ricourt - Ribemont,m ricourt ribemont
StopArea:OCE87313072,Albert,albert
StopArea:OCE87313080,Saint-Roch,saint roch
StopArea:OCE87313098,Ailly-sur-Somme,ailly sur somme
StopArea:OCE87313106,Picquigny,picquigny
StopArea:OCE87313114,Hangest-sur-Somme,hangest sur somme
StopArea:OCE87313122,Longpr√©-les-Corps-Saints,longpr les corps saints
StopArea:OCE87313130,Pont-Remy,pont remy
StopArea:OCE87313213,Boves,boves
StopArea:OCE87313221,Ailly-sur-Noye,ailly sur noye
StopArea:OCE87313239,La Faloise,la faloise
StopArea:OCE87313247,Breteuil-Embranchement,breteuil embranchement
StopArea:OCE87313262,Gannes,gannes
StopArea:OCE87313270,Saint-Just-en-Chauss√©e,saint just en chauss e
StopArea:OCE87313288,Saint-Remy-en-l'Eau,saint remy en l eau
StopArea:OCE87313296,Avrechy,avrechy
StopArea:OCE87313304,Clermont de l'Oise,clermont de l oise
StopArea:OCE87313320,Moreuil,moreuil
StopArea:OCE87313338,Hargicourt - Pierrepont,hargicourt pierrepont
StopArea:OCE87313346,Montdidier,montdidier
StopArea:OCE87313353,Tricot,tricot
StopArea:OCE87313379,Namps - Quevauvillers,namps quevauvillers
StopArea:OCE87313387,Estr√©es-Saint-Denis,estr es saint denis
StopArea:OCE87313395,Poix-de-Picardie,poix de picardie
StopArea:OCE87313403,R√©my,r my
StopArea:OCE87313437,Villers-Bretonneux,villers bretonneux
StopArea:OCE87313445,Marcelcave,marcelcave
StopArea:OCE87313460,Rosi√®res,rosi res
StopArea:OCE87313478,Chaulnes,chaulnes
StopArea:OCE87313486,Nesle,nesle
StopArea:OCE87313494,Ham,ham
StopArea:OCE87313510,Beauvais,beauvais
StopArea:OCE87313544,Cramoisy,cramoisy
StopArea:OCE87313551,Cires-l√®s-Mello,cires l s mello
StopArea:OCE87313569,Balagny Saint-√âpin,balagny saint apin
StopArea:OCE87313577,Mouy - Bury,mouy bury
StopArea:OCE87313585,Hermes - Berthecourt,hermes berthecourt
StopArea:OCE87313593,Villers-Saint-S√©pulcre,villers saint s pulcre
StopArea:OCE87313601,Rochy-Cond√©,rochy cond
StopArea:OCE87313668,M√©ru,m ru
StopArea:OCE87313676,Laboissi√®re - Le D√©luge,laboissi re le d luge
StopArea:OCE87313684,Saint-Sulpice - Auteuil,saint sulpice auteuil
StopArea:OCE87313692,Herchies,herchies
StopArea:OCE87313700,Milly-sur-Th√©rain,milly sur th rain
StopArea:OCE87313718,Saint-Omer-en-Chauss√©e,saint omer en chauss e
StopArea:OCE87313726,Marseille-en-Beauvaisis,marseille en beauvaisis
StopArea:OCE87313734,Grandvilliers,grandvilliers
StopArea:OCE87313742,Feuqui√®res - Broquiers,feuqui res broquiers
StopArea:OCE87313759,Abancourt,abancourt
StopArea:OCE87313767,Aumale,aumale
StopArea:OCE87313809,Blangy-sur-Bresle,blangy sur bresle
StopArea:OCE87313817,Longroy - Gamaches,longroy gamaches
StopArea:OCE87313833,Formerie,formerie
StopArea:OCE87313841,Fouilloy,fouilloy
StopArea:OCE87313874,Amiens,amiens
StopArea:OCE87313882,TGV Haute Picardie,tgv haute picardie
StopArea:OCE87315044,Daours,daours
StopArea:OCE87316059,Heilly,heilly
StopArea:OCE87316067,Buire-sur-l'Ancre,buire sur l ancre
StopArea:OCE87316075,Dreuil-l√®s-Amiens,dreuil l s amiens
StopArea:OCE87316109,Dommartin - Remiencourt,dommartin remiencourt
StopArea:OCE87316125,Th√©zy-Glimont,th zy glimont
StopArea:OCE87316208,Wacquemoulin,wacquemoulin
StopArea:OCE87316398,Heilles - Mouchy,heilles mouchy
StopArea:OCE87316406,Montreuil-sur-Th√©rain,montreuil sur th rain
StopArea:OCE87316604,Aubin-Saint-Vaast,aubin saint vaast
StopArea:OCE87316679,Pihen,pihen
StopArea:OCE87316687,Le Haut Banc,le haut banc
StopArea:OCE87317016,Boulogne - Tintelleries,boulogne tintelleries
StopArea:OCE87317057,Rang-du-Fliers - Verton - Berck,rang du fliers verton berck
StopArea:OCE87317065,√âtaples - Le Touquet,ataples le touquet
StopArea:OCE87317081,Dannes - Camiers,dannes camiers
StopArea:OCE87317099,Neufch√¢tel-Hardelot,neufch tel hardelot
StopArea:OCE87317107,Hesdigneul,hesdigneul
StopArea:OCE87317115,Pont de Briques,pont de briques
StopArea:OCE87317123,Wimille - Wimereux,wimille wimereux
StopArea:OCE87317164,Montreuil sur Mer,montreuil sur mer
StopArea:OCE87317180,Brimeux,brimeux
StopArea:OCE87317198,Beaurainville,beaurainville
StopArea:OCE87317206,Maresquel,maresquel
StopArea:OCE87317222,Hesdin,hesdin
StopArea:OCE87317230,Auchy-l√®s-Hesdin,auchy l s hesdin
StopArea:OCE87317248,Blangy-sur-Ternoise,blangy sur ternoise
StopArea:OCE87317255,Anvin,anvin
StopArea:OCE87317263,Calais Ville,calais ville
StopArea:OCE87317305,Les Fontinettes,les fontinettes
StopArea:OCE87317321,Caffiers,caffiers
StopArea:OCE87317339,Marquise - Rinxent,marquise rinxent
StopArea:OCE87317362,Abbeville,abbeville
StopArea:OCE87317396,Noyelles-sur-Mer,noyelles sur mer
StopArea:OCE87317404,Rue,rue
StopArea:OCE87317529,Le Tr√©port - Mers-les-Bains,le tr port mers les bains
StopArea:OCE87317537,Eu,eu
StopArea:OCE87317586,Boulogne sur Mer,boulogne sur mer
StopArea:OCE87317610,Beau Marais,beau marais
StopArea:OCE87318964,Avignon TGV,avignon tgv
StopArea:OCE87319012,Aix-en-Provence TGV,aix en provence tgv
StopArea:OCE87319756,Vi√©ville,vi ville
StopArea:OCE87319764,Montaulin Vall√©e Verte,montaulin vall e verte
StopArea:OCE87321745,Penho√´t,penho t
StopArea:OCE87321992,Le Mont-Saint-Michel,le mont saint michel
StopArea:OCE87322347,Traou Nez,traou nez
StopArea:OCE87323675,Montlu√ßon Rimard,montlu on rimard
StopArea:OCE87324095,Futuroscope,futuroscope
StopArea:OCE87324335,Hirson √âcoles,hirson acoles
StopArea:OCE87326462,Ro√¥court-la-C√¥te,ro court la c te
StopArea:OCE87328021,Les Cauquillous,les cauquillous
StopArea:OCE87328195,Th√©s√©e,th s e
StopArea:OCE87333005,Pouzauges,pouzauges
StopArea:OCE87334490,Cesson-S√©vign√©,cesson s vign
StopArea:OCE87334508,La Poterie,la poterie
StopArea:OCE87335521,Grenoble,grenoble
StopArea:OCE87336909,Davezieux Centre Commercial,davezieux centre commercial
StopArea:OCE87336958,Guilherand-Granges Sadi Carnot,guilherand granges sadi carnot
StopArea:OCE87336966,Saint-Georges-les-Bains Ch,saint georges les bains ch
StopArea:OCE87336974,La Voulte-sur-Rh√¥ne Mairie,la voulte sur rh ne mairie
StopArea:OCE87336982,Saint-Julien-en-Saint-Alban Centre,saint julien en saint alban centre
StopArea:OCE87336990,FLAVIAC Ren√© Cassin,flaviac ren cassin
StopArea:OCE87337006,COUX Centre,coux centre
StopArea:OCE87337014,VEYRAS Le Ruissol,veyras le ruissol
StopArea:OCE87337022,VESSEAUX Place des Commerces,vesseaux place des commerces
StopArea:OCE87337030,Saint-PRIVAT Le Gabelu,saint privat le gabelu
StopArea:OCE87337089,Aubenas Place de la Paix,aubenas place de la paix
StopArea:OCE87337097,Lavilledieu Centre,lavilledieu centre
StopArea:OCE87337378,Dives-sur-Mer Port-Guillaume,dives sur mer port guillaume
StopArea:OCE87337527,Reignac Caf√© Brul√©,reignac caf brul
StopArea:OCE87337543,Chambourg-sur-Indre Chopin,chambourg sur indre chopin
StopArea:OCE87338137,Lafert√©-sur-Aube,lafert sur aube
StopArea:OCE87338145,Saint-Dizier Saint-Amand,saint dizier saint amand
StopArea:OCE87338152,Gourzon,gourzon
StopArea:OCE87338160,Rachecourt-sur-Marne,rachecourt sur marne
StopArea:OCE87338178,Vecqueville,vecqueville
StopArea:OCE87338186,Rupt,rupt
StopArea:OCE87338194,Rouvroy-sur-Marne,rouvroy sur marne
StopArea:OCE87338517,Hoenheim Tram,hoenheim tram
StopArea:OCE87338525,Krimmeri Meinau,krimmeri meinau
StopArea:OCE87338590,Monte-Carlo Country Club,monte carlo country club
StopArea:OCE87338707,La Voulte-sur-Rh√¥ne Cit√©,la voulte sur rh ne cit
StopArea:OCE87342006,B√©thune,b thune
StopArea:OCE87342014,Arras,arras
StopArea:OCE87342030,Miraumont,miraumont
StopArea:OCE87342048,Achiet,achiet
StopArea:OCE87342063,Courcelles-le-Comte,courcelles le comte
StopArea:OCE87342071,Boisleux,boisleux
StopArea:OCE87342089,Roeux,roeux
StopArea:OCE87342097,Biache-Saint-Vaast,biache saint vaast
StopArea:OCE87342105,Bully - Grenay,bully grenay
StopArea:OCE87342113,Vitry-en-Artois,vitry en artois
StopArea:OCE87342121,Mazingarbe,mazingarbe
StopArea:OCE87342139,Noeux-Les-Mines,noeux les mines
StopArea:OCE87342188,Maroeuil,maroeuil
StopArea:OCE87342204,Fouquereuil,fouquereuil
StopArea:OCE87342212,Fr√©vin-Capelle,fr vin capelle
StopArea:OCE87342220,Chocques,chocques
StopArea:OCE87342238,Lillers,lillers
StopArea:OCE87342246,Aubigny-en-Artois,aubigny en artois
StopArea:OCE87342253,Savy-Berlette,savy berlette
StopArea:OCE87342261,Ham-en-Artois,ham en artois
StopArea:OCE87342279,Berguette - Isbergues,berguette isbergues
StopArea:OCE87342287,Thiennes,thiennes
StopArea:OCE87342295,Steenbecque,steenbecque
StopArea:OCE87342303,Tincques,tincques
StopArea:OCE87342337,Saint-Pol-sur-Ternoise,saint pol sur ternoise
StopArea:OCE87342402,Beuvry l√®s B√©thune,beuvry l s b thune
StopArea:OCE87342410,Cuinchy,cuinchy
StopArea:OCE87342436,La Bass√©e,la bass e
StopArea:OCE87342451,Salom√©,salom
StopArea:OCE87342469,Marquillies,marquillies
StopArea:OCE87342527,Farbus,farbus
StopArea:OCE87342535,Vis √† Marles,vis marles
StopArea:OCE87342543,Calonne-Ricouart,calonne ricouart
StopArea:OCE87342550,Pernes - Camblain,pernes camblain
StopArea:OCE87342576,Vimy,vimy
StopArea:OCE87342584,Avion,avion
StopArea:OCE87342592,Bailleul-Sir-Berthoult,bailleul sir berthoult
StopArea:OCE87343004,Valenciennes,valenciennes
StopArea:OCE87343103,Saint-Amand-les-Eaux,saint amand les eaux
StopArea:OCE87343160,Beuvrages,beuvrages
StopArea:OCE87343210,Le Poirier Universit√©,le poirier universit
StopArea:OCE87343301,Wallers,wallers
StopArea:OCE87343319,Raismes,raismes
StopArea:OCE87343400,Trith-Saint-L√©ger,trith saint l ger
StopArea:OCE87343418,Prouvy - Thiant,prouvy thiant
StopArea:OCE87343459,Denain,denain
StopArea:OCE87343475,Lourches,lourches
StopArea:OCE87344127,Saint-Ly√© Maisons br√ªl√©es,saint ly maisons br l es
StopArea:OCE87344440,Sainte-Gemme,sainte gemme
StopArea:OCE87344598,Saint-Angel,saint angel
StopArea:OCE87345009,Douai,douai
StopArea:OCE87345025,Lens,lens
StopArea:OCE87345033,Loos-en-Gohelle,loos en gohelle
StopArea:OCE87345041,Li√©vin,li vin
StopArea:OCE87345108,Brebi√®res Sud,brebi res sud
StopArea:OCE87345116,Corbehem,corbehem
StopArea:OCE87345124,Pont de Sallaumines,pont de sallaumines
StopArea:OCE87345132,Coron de M√©ricourt,coron de m ricourt
StopArea:OCE87345140,Billy-Montigny,billy montigny
StopArea:OCE87345157,H√©nin-Beaumont,h nin beaumont
StopArea:OCE87345165,Dourges,dourges
StopArea:OCE87345207,Pont de la De√ªle,pont de la de le
StopArea:OCE87345215,Sallaumines,sallaumines
StopArea:OCE87345223,Leforest,leforest
StopArea:OCE87345231,Loison-sous-Lens,loison sous lens
StopArea:OCE87345249,Ostricourt,ostricourt
StopArea:OCE87345256,Libercourt,libercourt
StopArea:OCE87345264,Pont-√†-Vendin,pont vendin
StopArea:OCE87345272,Meurchin,meurchin
StopArea:OCE87345280,Bauvin - Provin,bauvin provin
StopArea:OCE87345306,Montigny-en-Ostrevent,montigny en ostrevent
StopArea:OCE87345314,Somain,somain
StopArea:OCE87345389,Bouchain,bouchain
StopArea:OCE87345397,Iwuy,iwuy
StopArea:OCE87345405,Sin-le-Noble,sin le noble
StopArea:OCE87345413,Cantin,cantin
StopArea:OCE87345421,Arleux,arleux
StopArea:OCE87345439,Brun√©mont,brun mont
StopArea:OCE87345447,Aubigny-au-Bac,aubigny au bac
StopArea:OCE87345496,Escaudoeuvres,escaudoeuvres
StopArea:OCE87345520,Cambrai,cambrai
StopArea:OCE87345546,Maurois,maurois
StopArea:OCE87345553,Bertry,bertry
StopArea:OCE87345561,Caudry,caudry
StopArea:OCE87345587,Catteni√®res,catteni res
StopArea:OCE87345595,Wambaix,wambaix
StopArea:OCE87352047,Champagnole Paul-√âmile Victor,champagnole paul amile victor
StopArea:OCE87353573,Le Toec,le toec
StopArea:OCE87353581,Les Ramassiers,les ramassiers
StopArea:OCE87353599,Saint-Martin du Touch,saint martin du touch
StopArea:OCE87354589,Saint-S√©bastien Pas Enchant√©s,saint s bastien pas enchant s
StopArea:OCE87354597,Saint-S√©bastien Fr√™ne Rond,saint s bastien fr ne rond
StopArea:OCE87361980,Rosiers-d'√âgletons,rosiers d agletons
StopArea:OCE87365155,Annonay Boutique SNCF,annonay boutique sncf
StopArea:OCE87381509,Mantes-la-Jolie,mantes la jolie
StopArea:OCE87381624,Br√©val,br val
StopArea:OCE87384008,Paris Saint-Lazare,paris saint lazare
StopArea:OCE87386540,Munster Badischhof,munster badischhof
StopArea:OCE87387001,√âvreux Normandie,avreux normandie
StopArea:OCE87387092,Bueil,bueil
StopArea:OCE87387142,La Bonneville-sur-Iton,la bonneville sur iton
StopArea:OCE87387159,Conches,conches
StopArea:OCE87387175,Romilly-la-Puthenaye,romilly la puthenaye
StopArea:OCE87387183,Beaumont-le-Roger,beaumont le roger
StopArea:OCE87389924,Saint-Hilaire-De-Riez,saint hilaire de riez
StopArea:OCE87391003,Paris Montparnasse Hall 1 - 2,paris montparnasse hall 1 2
StopArea:OCE87391102,Paris Montparnasse Vaugirard,paris montparnasse vaugirard
StopArea:OCE87391300,Morre,morre
StopArea:OCE87392829,Saint-Martin-d'H√®res,saint martin d h res
StopArea:OCE87393009,Versailles Chantiers,versailles chantiers
StopArea:OCE87393314,Rambouillet,rambouillet
StopArea:OCE87393348,Gazeran,gazeran
StopArea:OCE87393488,Dreux,dreux
StopArea:OCE87393553,Nonancourt,nonancourt
StopArea:OCE87393579,Massy-Palaiseau,massy palaiseau
StopArea:OCE87393595,Verneuil-sur-Avre,verneuil sur avre
StopArea:OCE87393702,Massy TGV,massy tgv
StopArea:OCE87393843,Saint-Quentin en Yvelines,saint quentin en yvelines
StopArea:OCE87394007,Chartres,chartres
StopArea:OCE87394015,Luc√©,luc
StopArea:OCE87394114,√âpernon,apernon
StopArea:OCE87394130,Maintenon,maintenon
StopArea:OCE87394148,Saint-Piat,saint piat
StopArea:OCE87394155,Jouy,jouy
StopArea:OCE87394171,La Villette Saint-Prest,la villette saint prest
StopArea:OCE87394205,Amilly - Ouerray,amilly ouerray
StopArea:OCE87394213,Saint-Aubin - Saint-Luperce,saint aubin saint luperce
StopArea:OCE87394221,Courville-sur-Eure,courville sur eure
StopArea:OCE87394247,Pontgouin,pontgouin
StopArea:OCE87394254,La Loupe,la loupe
StopArea:OCE87394270,Bretoncelles,bretoncelles
StopArea:OCE87394288,Cond√©-sur-Huisne,cond sur huisne
StopArea:OCE87394296,Nogent-le-Rotrou,nogent le rotrou
StopArea:OCE87394403,La Taye,la taye
StopArea:OCE87394411,Bailleau-le-pin,bailleau le pin
StopArea:OCE87394429,Magny - Blandainville,magny blandainville
StopArea:OCE87394437,Illiers-Combray,illiers combray
StopArea:OCE87394452,Brou,brou
StopArea:OCE87394486,Arrou,arrou
StopArea:OCE87394494,Courtalain - Saint-Pellerin,courtalain saint pellerin
StopArea:OCE87395657,Brassac-les-Mines Lyc√©e Rabelais,brassac les mines lyc e rabelais
StopArea:OCE87395665,Issoire Lyc√©e Deville,issoire lyc e deville
StopArea:OCE87395673,Issoire Lyc√©e Murat,issoire lyc e murat
StopArea:OCE87395830,Le Breuil-sur-Couze Lyc√©e Agricole,le breuil sur couze lyc e agricole
StopArea:OCE87395962,Sainte-Florine Lyc√©e Claude Favard,sainte florine lyc e claude favard
StopArea:OCE87396002,Le Mans,le mans
StopArea:OCE87396028,Neuville,neuville
StopArea:OCE87396036,La Guierche,la guierche
StopArea:OCE87396044,Montbizot,montbizot
StopArea:OCE87396051,Teill√©,teill
StopArea:OCE87396077,Vivoin - Beaumont,vivoin beaumont
StopArea:OCE87396093,La Hutte Coulombiers,la hutte coulombiers
StopArea:OCE87396200,Domfront,domfront
StopArea:OCE87396218,Conlie,conlie
StopArea:OCE87396234,Sill√©-le-Guillaume,sill le guillaume
StopArea:OCE87396275,Champagn√©,champagn
StopArea:OCE87396283,Saint-Mars-la-Bri√®re,saint mars la bri re
StopArea:OCE87396291,Montfort-le-Gesnois,montfort le gesnois
StopArea:OCE87396309,Connerr√© - Beill√©,connerr beill
StopArea:OCE87396317,Sceaux - Bo√´ss√©,sceaux bo ss
StopArea:OCE87396325,La Fert√©-Bernard,la fert bernard
StopArea:OCE87396333,Le Theil - La Rouge,le theil la rouge
StopArea:OCE87396358,Voivres,voivres
StopArea:OCE87396366,La Suze,la suze
StopArea:OCE87396374,Noyen,noyen
StopArea:OCE87396408,Sabl√©-sur-Sarthe,sabl sur sarthe
StopArea:OCE87396549,Arnage,arnage
StopArea:OCE87396556,Laign√© - Saint-Gervais,laign saint gervais
StopArea:OCE87396564,√âcommoy,acommoy
StopArea:OCE87396572,Aubign√©-Racan,aubign racan
StopArea:OCE87396580,Mayet,mayet
StopArea:OCE87396598,Vaas,vaas
StopArea:OCE87396606,Ch√¢teau-du-Loir,ch teau du loir
StopArea:OCE87396895,Clermont la Rotonde,clermont la rotonde
StopArea:OCE87398735,Bar-sur-Aube H√¥tel de Ville,bar sur aube h tel de ville
StopArea:OCE87400986,Magneux - Courlandon,magneux courlandon
StopArea:OCE87401323,Mouans-Sartoux,mouans sartoux
StopArea:OCE87402297,Colmar M√©sanges,colmar m sanges
StopArea:OCE87402826,Bienville,bienville
StopArea:OCE87405571,Anzeling Carrefour,anzeling carrefour
StopArea:OCE87405712,Barisey-la-C√¥te Mairie,barisey la c te mairie
StopArea:OCE87405746,Neufch√¢teau H√¥pital,neufch teau h pital
StopArea:OCE87405753,Toul Gare Routi√®re,toul gare routi re
StopArea:OCE87405993,Mirecourt Lyc√©e Agricole,mirecourt lyc e agricole
StopArea:OCE87406611,Longuyon Pont des Deux Eaux,longuyon pont des deux eaux
StopArea:OCE87406660,Cons-la-Grandville Haut Fourneau,cons la grandville haut fourneau
StopArea:OCE87406678,Cons-la-Grandville Lotissement,cons la grandville lotissement
StopArea:OCE87406686,Lexy Providence Usine,lexy providence usine
StopArea:OCE87406694,Lexy Rue du Square,lexy rue du square
StopArea:OCE87406702,Longuyon La Machine,longuyon la machine
StopArea:OCE87406710,Longwy Espace Bus,longwy espace bus
StopArea:OCE87406728,Bouzonville Rue d'Alzing,bouzonville rue d alzing
StopArea:OCE87406736,Creutzwald Gare Routi√®re,creutzwald gare routi re
StopArea:OCE87406744,Distroff √âglise,distroff aglise
StopArea:OCE87406751,Ebersviller Centre,ebersviller centre
StopArea:OCE87406769,Falck Rue Principale,falck rue principale
StopArea:OCE87406777,Hombourg Chapelle,hombourg chapelle
StopArea:OCE87406793,Hombourg Tilleuls,hombourg tilleuls
StopArea:OCE87406801,K√©dange √âglise,k dange aglise
StopArea:OCE87406819,Kuntzig Bibiche,kuntzig bibiche
StopArea:OCE87406827,Kuntzig Place de la Libert√©,kuntzig place de la libert
StopArea:OCE87406835,Metzervisse Centre,metzervisse centre
StopArea:OCE87406843,Metzervisse √âglise,metzervisse aglise
StopArea:OCE87406850,Cocheren Village,cocheren village
StopArea:OCE87406868,Far√©bersviller Cit√©,far bersviller cit
StopArea:OCE87406884,Far√©bersviller Rue du Moulin,far bersviller rue du moulin
StopArea:OCE87406892,Farschviller Centre,farschviller centre
StopArea:OCE87406900,Sarreguemines Poste,sarreguemines poste
StopArea:OCE87406918,Mertzwiller Monuments aux Morts,mertzwiller monuments aux morts
StopArea:OCE87406926,Philippsbourg Lieschbach,philippsbourg lieschbach
StopArea:OCE87406934,Bitche Rue de la Paix,bitche rue de la paix
StopArea:OCE87406959,Enchenberg Mairie,enchenberg mairie
StopArea:OCE87406967,Rohrbach-les-Bitche Carrefour,rohrbach les bitche carrefour
StopArea:OCE87406975,F√©n√©trange Gendarmerie,f n trange gendarmerie
StopArea:OCE87406983,F√©n√©trange Le Val Fleuri,f n trange le val fleuri
StopArea:OCE87406991,Sarralbe Centre,sarralbe centre
StopArea:OCE87407015,Sarraltroff Mairie,sarraltroff mairie
StopArea:OCE87407031,Sarrebourg M√©phisto,sarrebourg m phisto
StopArea:OCE87407049,Avricourt Rue Des Halles,avricourt rue des halles
StopArea:OCE87407056,Avricourt Rue de Lorraine,avricourt rue de lorraine
StopArea:OCE87407064,Igney Mairie,igney mairie
StopArea:OCE87407098,R√©chicourt-le-Ch√¢teau Centre,r chicourt le ch teau centre
StopArea:OCE87407106,Sarrebourg Verreries,sarrebourg verreries
StopArea:OCE87407114,B√©nestroff Centre,b nestroff centre
StopArea:OCE87407122,F√©n√©trange Carrefour des √âtangs,f n trange carrefour des atangs
StopArea:OCE87407130,Gosselming Poste,gosselming poste
StopArea:OCE87407148,Mittersheim l'Escale,mittersheim l escale
StopArea:OCE87407155,Morhange Place de la R√©publique,morhange place de la r publique
StopArea:OCE87407171,Morhange Jeanne d'Arc,morhange jeanne d arc
StopArea:OCE87407189,Sarrebourg Place Mathey,sarrebourg place mathey
StopArea:OCE87407247,Budange Rue D'Aboncourt,budange rue d aboncourt
StopArea:OCE87407262,Gundershoffen au Cygne,gundershoffen au cygne
StopArea:OCE87407270,Niederbronn-les-Bains Arch√©ologie,niederbronn les bains arch ologie
StopArea:OCE87407296,Niederbronn-les-Bains Usine,niederbronn les bains usine
StopArea:OCE87407320,Schweighouse-sur-Moder Villa,schweighouse sur moder villa
StopArea:OCE87407379,Sarrewerden Lotissement,sarrewerden lotissement
StopArea:OCE87407403,Gondrexange Centre,gondrexange centre
StopArea:OCE87407502,Arrest Usine Melius,arrest usine melius
StopArea:OCE87407692,La Chomette,la chomette
StopArea:OCE87407726,La Grave Carrefour,la grave carrefour
StopArea:OCE87407932,Lanthenas,lanthenas
StopArea:OCE87407940,Le Breuil-sur-C Salle des F.,le breuil sur c salle des f
StopArea:OCE87407981,Langeac le Treuil,langeac le treuil
StopArea:OCE87408906,Meaulne Place Centrale,meaulne place centrale
StopArea:OCE87408971,Reugny RN144,reugny rn144
StopArea:OCE87409417,Pontmort RN9-D17,pontmort rn9 d17
StopArea:OCE87409474,Paulhaguet Monument,paulhaguet monument
StopArea:OCE87409482,Vieille-Brioude,vieille brioude
StopArea:OCE87409490,Urcay H√¥tel du Lyon d'Or,urcay h tel du lyon d or
StopArea:OCE87409524,Sainte-Florine Place Fran√ßois,sainte florine place fran ois
StopArea:OCE87409532,Sainte-Eug√©nie-de-Villeneuve,sainte eug nie de villeneuve
StopArea:OCE87409698,Saint-Eble,saint eble
StopArea:OCE87409763,Bois d'Oingt,bois d oingt
StopArea:OCE87409771,L√©tra Gabodi√®re,l tra gabodi re
StopArea:OCE87411017,Rouen Rive Droite,rouen rive droite
StopArea:OCE87411173,Elbeuf - Saint-Aubin,elbeuf saint aubin
StopArea:OCE87411181,Tourville,tourville
StopArea:OCE87411207,Oissel,oissel
StopArea:OCE87411215,Saint-√âtienne-du-Rouvray,saint atienne du rouvray
StopArea:OCE87411223,Sotteville,sotteville
StopArea:OCE87411249,Maromme,maromme
StopArea:OCE87411256,Malaunay - Le Houlme,malaunay le houlme
StopArea:OCE87411264,Barentin,barentin
StopArea:OCE87411272,Pavilly,pavilly
StopArea:OCE87411280,Motteville,motteville
StopArea:OCE87411439,Morgny,morgny
StopArea:OCE87411447,Longuerue - Vieux-Manoir,longuerue vieux manoir
StopArea:OCE87411454,Mont√©rolier - Buchy,mont rolier buchy
StopArea:OCE87411462,Sommery,sommery
StopArea:OCE87411470,Serqueux,serqueux
StopArea:OCE87411801,Montville,montville
StopArea:OCE87411819,Cl√®res,cl res
StopArea:OCE87413013,Le Havre,le havre
StopArea:OCE87413302,Harfleur,harfleur
StopArea:OCE87413310,Saint-Laurent - Gainneville,saint laurent gainneville
StopArea:OCE87413328,√âtainhus - Saint-Romain,atainhus saint romain
StopArea:OCE87413344,Br√©aut√© - Beuzeville,br aut beuzeville
StopArea:OCE87413377,Foucart - Alvimare,foucart alvimare
StopArea:OCE87413385,Yvetot,yvetot
StopArea:OCE87413542,F√©camp,f camp
StopArea:OCE87415018,Dieppe,dieppe
StopArea:OCE87415125,Saint-Aubin-sur-Scie,saint aubin sur scie
StopArea:OCE87415141,Longueville-sur-Scie,longueville sur scie
StopArea:OCE87415158,Auffay,auffay
StopArea:OCE87415166,Saint-Victor-l'Abbaye,saint victor l abbaye
StopArea:OCE87415323,Bourgtheroulde - Thuit-H√©bert,bourgtheroulde thuit h bert
StopArea:OCE87415364,Brionne,brionne
StopArea:OCE87415604,Vernon - Giverny,vernon giverny
StopArea:OCE87415620,Gaillon - Aubevoye,gaillon aubevoye
StopArea:OCE87415661,Pont-de-l'Arche,pont de l arche
StopArea:OCE87415877,Val-de-Reuil,val de reuil
StopArea:OCE87415885,Rosny-sur-Seine,rosny sur seine
StopArea:OCE87415893,Bonni√®res,bonni res
StopArea:OCE87417444,Franchet d'Esperey,franchet d esperey
StopArea:OCE87417501,Lancey,lancey
StopArea:OCE87417808,Ajain,ajain
StopArea:OCE87417840,Montlu√ßon LEM,montlu on lem
StopArea:OCE87417865,Eyrein,eyrein
StopArea:OCE87417881,Maussac le Poteau,maussac le poteau
StopArea:OCE87417907,Ussel Place Henri Queuille,ussel place henri queuille
StopArea:OCE87420414,Peaugres D√©viation,peaugres d viation
StopArea:OCE87420430,F√©lines la Remise,f lines la remise
StopArea:OCE87420448,Sablons Pont de Sablons,sablons pont de sablons
StopArea:OCE87420489,St-√âtienne-de-B Col d'Auriol,st atienne de b col d auriol
StopArea:OCE87420497,Privas H√¥pital Sainte-Marie,privas h pital sainte marie
StopArea:OCE87420505,Rompon Fonts du Pouzin,rompon fonts du pouzin
StopArea:OCE87420836,Alba-la-Romaine Ruines Romaines,alba la romaine ruines romaines
StopArea:OCE87427393,Monnaie Jean-Baptiste Moreau,monnaie jean baptiste moreau
StopArea:OCE87429761,Auxon Route Nationale,auxon route nationale
StopArea:OCE87430785,Goderville,goderville
StopArea:OCE87437798,La Rochelle Porte Dauphine,la rochelle porte dauphine
StopArea:OCE87437806,Aytr√© Plage,aytr plage
StopArea:OCE87439554,Vitrolles A√©roport Marseille P,vitrolles a roport marseille p
StopArea:OCE87440016,La Fouillade,la fouillade
StopArea:OCE87442442,Montauban Prax Paris,montauban prax paris
StopArea:OCE87444000,Caen,caen
StopArea:OCE87444042,Bretteville - Norrey,bretteville norrey
StopArea:OCE87444059,Audrieu,audrieu
StopArea:OCE87444067,Bayeux,bayeux
StopArea:OCE87444083,Le Molay-Littry,le molay littry
StopArea:OCE87444182,Fr√©nouville - Cagny,fr nouville cagny
StopArea:OCE87444190,Moult - Argences,moult argences
StopArea:OCE87444208,M√©zidon - Canon,m zidon canon
StopArea:OCE87444216,Saint-Pierre-sur-Dives,saint pierre sur dives
StopArea:OCE87444265,Lisieux,lisieux
StopArea:OCE87444299,Bernay,bernay
StopArea:OCE87444315,Serquigny,serquigny
StopArea:OCE87444323,Le Grand Jardin,le grand jardin
StopArea:OCE87444349,Pont-l'√âv√™que,pont l av que
StopArea:OCE87444372,Trouville - Deauville,trouville deauville
StopArea:OCE87444380,Blonville-sur-Mer - Benerville,blonville sur mer benerville
StopArea:OCE87444398,Villers-sur-Mer,villers sur mer
StopArea:OCE87444406,Houlgate,houlgate
StopArea:OCE87444414,Dives - Cabourg,dives cabourg
StopArea:OCE87444539,Argentan,argentan
StopArea:OCE87444562,Surdon,surdon
StopArea:OCE87444604,Sainte-Gauburge,sainte gauburge
StopArea:OCE87444638,L'Aigle,l aigle
StopArea:OCE87444695,S√©es,s es
StopArea:OCE87444711,Alen√ßon,alen on
StopArea:OCE87444877,Cherbourg,cherbourg
StopArea:OCE87446179,Saint-Cyprien Ar√®nes,saint cyprien ar nes
StopArea:OCE87447003,Saint-L√¥,saint l
StopArea:OCE87447110,Coutances,coutances
StopArea:OCE87447219,Lison,lison
StopArea:OCE87447243,Carentan,carentan
StopArea:OCE87447284,Valognes,valognes
StopArea:OCE87447649,Folligny,folligny
StopArea:OCE87447680,Granville,granville
StopArea:OCE87447698,Villedieu-les-Po√™les,villedieu les po les
StopArea:OCE87448001,Flers,flers
StopArea:OCE87448084,Briouze,briouze
StopArea:OCE87448159,Vire,vire
StopArea:OCE87448514,Avranches,avranches
StopArea:OCE87450064,Meymac Bourg,meymac bourg
StopArea:OCE87450874,Gr√®zes S√©verac-l'Eglise,gr zes s verac l eglise
StopArea:OCE87453654,Costaros,costaros
StopArea:OCE87453670,Pradelles,pradelles
StopArea:OCE87455006,Montgaillard,montgaillard
StopArea:OCE87458810,Buzy Rue d'Etain,buzy rue d etain
StopArea:OCE87458828,√âtain Centre,atain centre
StopArea:OCE87458836,Verdun la Tour du Champ,verdun la tour du champ
StopArea:OCE87458869,Neufch√¢teau Lyc√©e Professionnel,neufch teau lyc e professionnel
StopArea:OCE87462085,Chamonix Aiguille du Midi,chamonix aiguille du midi
StopArea:OCE87462390,Fleurance Gendarmerie,fleurance gendarmerie
StopArea:OCE87462796,Saint-Sauvy,saint sauvy
StopArea:OCE87462812,Gimat Salle des Fetes,gimat salle des fetes
StopArea:OCE87462820,Bourret les Gourdis,bourret les gourdis
StopArea:OCE87462960,Cholet H√¥tel de Ville,cholet h tel de ville
StopArea:OCE87463083,Nantes Pirmil,nantes pirmil
StopArea:OCE87463125,Sainte-Pazanne rue du Vigneau,sainte pazanne rue du vigneau
StopArea:OCE87471003,Rennes,rennes
StopArea:OCE87471029,Vern,vern
StopArea:OCE87471037,Bruz,bruz
StopArea:OCE87471045,Betton,betton
StopArea:OCE87471052,Saint-Jacques-de-la-Lande,saint jacques de la lande
StopArea:OCE87471060,L'Hermitage - Mordelles,l hermitage mordelles
StopArea:OCE87471078,Montfort-sur-Meu,montfort sur meu
StopArea:OCE87471086,Montauban-de-Bretagne,montauban de bretagne
StopArea:OCE87471094,La Brohini√®re,la brohini re
StopArea:OCE87471102,Breteil,breteil
StopArea:OCE87471144,Laill√©,laill
StopArea:OCE87471151,Guichen - Bourg-des-Comptes,guichen bourg des comptes
StopArea:OCE87471169,Saint-Senoux - Pl√©ch√¢tel,saint senoux pl ch tel
StopArea:OCE87471177,Pl√©ch√¢tel,pl ch tel
StopArea:OCE87471185,Messac - Guipry,messac guipry
StopArea:OCE87471201,Fougeray - Langon,fougeray langon
StopArea:OCE87471219,Besl√©,besl
StopArea:OCE87471227,Mass√©rac,mass rac
StopArea:OCE87471300,Redon,redon
StopArea:OCE87471318,Saint-Armel,saint armel
StopArea:OCE87471326,Corps-Nuds,corps nuds
StopArea:OCE87471334,Janz√©,janz
StopArea:OCE87471342,Le Theil-de-Bretagne,le theil de bretagne
StopArea:OCE87471359,Retiers,retiers
StopArea:OCE87471367,Martign√©-Ferchaud,martign ferchaud
StopArea:OCE87471391,Pontchaillou,pontchaillou
StopArea:OCE87471458,Chevaign√©,chevaign
StopArea:OCE87471508,Vitr√©,vitr
StopArea:OCE87471516,Les Lacs,les lacs
StopArea:OCE87471524,Ch√¢teaubourg,ch teaubourg
StopArea:OCE87471532,Servon,servon
StopArea:OCE87471540,Noyal - Acign√©,noyal acign
StopArea:OCE87472605,Thann Centre,thann centre
StopArea:OCE87472639,Zu Rhein,zu rhein
StopArea:OCE87473009,Saint-Brieuc,saint brieuc
StopArea:OCE87473058,Qu√©dillac,qu dillac
StopArea:OCE87473066,Caulnes,caulnes
StopArea:OCE87473074,Broons,broons
StopArea:OCE87473082,Pl√©n√©e-Jugon,pl n e jugon
StopArea:OCE87473090,Plestan,plestan
StopArea:OCE87473108,Lamballe,lamballe
StopArea:OCE87473116,Yffiniac,yffiniac
StopArea:OCE87473124,La M√©augon,la m augon
StopArea:OCE87473132,Plouvara - Plerneuf,plouvara plerneuf
StopArea:OCE87473140,Ch√¢telaudren - Plouagat,ch telaudren plouagat
StopArea:OCE87473165,Belle-Isle - B√©gard,belle isle b gard
StopArea:OCE87473181,Plouaret Tr√©gor,plouaret tr gor
StopArea:OCE87473199,Ploun√©rin,ploun rin
StopArea:OCE87473207,Guingamp,guingamp
StopArea:OCE87473223,Lannion,lannion
StopArea:OCE87473264,Land√©bia,land bia
StopArea:OCE87473272,Planco√´t,planco t
StopArea:OCE87473504,Carhaix,carhaix
StopArea:OCE87473512,Moust√©ru,moust ru
StopArea:OCE87473520,Pont-Melvez,pont melvez
StopArea:OCE87473538,Plougonver,plougonver
StopArea:OCE87473546,Callac,callac
StopArea:OCE87473553,Le P√©nity,le p nity
StopArea:OCE87473561,Carno√´t - Locarn,carno t locarn
StopArea:OCE87473579,Coat Gu√©gan,coat gu gan
StopArea:OCE87473587,Les Mais,les mais
StopArea:OCE87473801,Gourland,gourland
StopArea:OCE87473819,Tr√©gonneau - Squiffiec,tr gonneau squiffiec
StopArea:OCE87473827,Br√©lidy - Plouec,br lidy plouec
StopArea:OCE87473835,Pontrieux Halte,pontrieux halte
StopArea:OCE87473843,Pontrieux,pontrieux
StopArea:OCE87473850,Lancerf,lancerf
StopArea:OCE87473868,Paimpol,paimpol
StopArea:OCE87473876,Frynaudour,frynaudour
StopArea:OCE87474007,Brest,brest
StopArea:OCE87474015,Dirinon,dirinon
StopArea:OCE87474056,Pont-de-Buis,pont de buis
StopArea:OCE87474064,Ch√¢teaulin,ch teaulin
StopArea:OCE87474098,Quimper,quimper
StopArea:OCE87474155,Rosporden,rosporden
StopArea:OCE87474189,Bannalec,bannalec
StopArea:OCE87474213,Kerhuon,kerhuon
StopArea:OCE87474221,La Forest-Landerneau,la forest landerneau
StopArea:OCE87474239,Landerneau,landerneau
StopArea:OCE87474262,La Roche-Maurice,la roche maurice
StopArea:OCE87474270,Landivisiau,landivisiau
StopArea:OCE87474296,Guimiliau,guimiliau
StopArea:OCE87474312,Saint-Th√©gonnec,saint th gonnec
StopArea:OCE87474320,Pleyber-Christ,pleyber christ
StopArea:OCE87474338,Morlaix,morlaix
StopArea:OCE87474411,Plouigneau,plouigneau
StopArea:OCE87476002,Lorient,lorient
StopArea:OCE87476200,Auray,auray
StopArea:OCE87476226,Landaul - Mendon,landaul mendon
StopArea:OCE87476234,Land√©vant,land vant
StopArea:OCE87476242,Brand√©rion,brand rion
StopArea:OCE87476259,Hennebont,hennebont
StopArea:OCE87476267,Les Sables Blancs,les sables blancs
StopArea:OCE87476275,L'Isthme,l isthme
StopArea:OCE87476309,Gestel,gestel
StopArea:OCE87476317,Quimperl√©,quimperl
StopArea:OCE87476408,Belz - Ploemel,belz ploemel
StopArea:OCE87476416,Plouharnel - Carnac,plouharnel carnac
StopArea:OCE87476424,Penthi√®vre,penthi vre
StopArea:OCE87476432,Kerhostin,kerhostin
StopArea:OCE87476440,Saint-Pierre-Quiberon,saint pierre quiberon
StopArea:OCE87476457,Quiberon,quiberon
StopArea:OCE87476606,Vannes,vannes
StopArea:OCE87476648,Sainte-Anne,sainte anne
StopArea:OCE87476671,Questembert,questembert
StopArea:OCE87476689,Malansac,malansac
StopArea:OCE87476754,S√©v√©rac,s v rac
StopArea:OCE87476762,Saint-Gildas-des-bois,saint gildas des bois
StopArea:OCE87476770,Dreff√©ac,dreff ac
StopArea:OCE87476853,Remilly Place du 11 Novembre,remilly place du 11 novembre
StopArea:OCE87476861,Diebling Maison Foresti√®re,diebling maison foresti re
StopArea:OCE87476879,F√©n√©trange Mairie,f n trange mairie
StopArea:OCE87476887,Romelfling Rue de l'Europe,romelfling rue de l europe
StopArea:OCE87476911,Romelfing √âglise,romelfing aglise
StopArea:OCE87476929,Vatimont Mairie,vatimont mairie
StopArea:OCE87476937,Yutz Saint-Vitus,yutz saint vitus
StopArea:OCE87477141,Welferding Rue de France,welferding rue de france
StopArea:OCE87477158,Merten R√©publique,merten r publique
StopArea:OCE87477562,Berthelming Mairie,berthelming mairie
StopArea:OCE87477570,Rehon Poste,rehon poste
StopArea:OCE87477588,Longwy Route de Metz,longwy route de metz
StopArea:OCE87477620,Sarrebourg Route de Phalsbourg,sarrebourg route de phalsbourg
StopArea:OCE87477638,Sarrebourg LP Messmer,sarrebourg lp messmer
StopArea:OCE87477646,Sarrebourg Mairie,sarrebourg mairie
StopArea:OCE87478016,Saint-Germain-sur-Ille,saint germain sur ille
StopArea:OCE87478024,Saint-M√©dard-sur-Ille,saint m dard sur ille
StopArea:OCE87478032,Montreuil-sur-Ille,montreuil sur ille
StopArea:OCE87478040,Ding√©,ding
StopArea:OCE87478057,Combourg,combourg
StopArea:OCE87478065,Bonnemain,bonnemain
StopArea:OCE87478073,Dol-de-Bretagne,dol de bretagne
StopArea:OCE87478081,La Fresnais,la fresnais
StopArea:OCE87478099,La Gouesni√®re - Cancale,la gouesni re cancale
StopArea:OCE87478107,Saint-Malo,saint malo
StopArea:OCE87478123,Plerguer,plerguer
StopArea:OCE87478131,Miniac,miniac
StopArea:OCE87478149,Pleudihen,pleudihen
StopArea:OCE87478156,La Hisse,la hisse
StopArea:OCE87478164,Dinan,dinan
StopArea:OCE87478180,Corseul - Languenan,corseul languenan
StopArea:OCE87478263,Pontorson - Mont-Saint-Michel,pontorson mont saint michel
StopArea:OCE87478404,Laval,laval
StopArea:OCE87478537,Monts√ªrs,monts rs
StopArea:OCE87478545,Neau,neau
StopArea:OCE87478552,√âvron,avron
StopArea:OCE87478560,Voutr√©,voutr
StopArea:OCE87478693,Digoin Lyc√©e,digoin lyc e
StopArea:OCE87478743,Le Genest,le genest
StopArea:OCE87478750,Port-Brillet,port brillet
StopArea:OCE87478768,Saint-Pierre-la-Cour,saint pierre la cour
StopArea:OCE87478784,Le Guidon,le guidon
StopArea:OCE87481002,Nantes,nantes
StopArea:OCE87481036,Rez√© Pont-Rousseau,rez pont rousseau
StopArea:OCE87481051,Chantenay,chantenay
StopArea:OCE87481069,La Basse Indre - Saint-Herblain,la basse indre saint herblain
StopArea:OCE87481143,Thouar√©,thouar
StopArea:OCE87481150,Mauves-sur-Loire,mauves sur loire
StopArea:OCE87481168,Le Cellier,le cellier
StopArea:OCE87481176,Boussay - La Bruffi√®re,boussay la bruffi re
StopArea:OCE87481184,Oudon,oudon
StopArea:OCE87481192,Ancenis,ancenis
StopArea:OCE87481200,Bouaye,bouaye
StopArea:OCE87481218,Port-Saint-P√®re - Saint-Mars,port saint p re saint mars
StopArea:OCE87481226,Sainte-Pazanne,sainte pazanne
StopArea:OCE87481234,Saint-Hilaire-de-Chal√©ons,saint hilaire de chal ons
StopArea:OCE87481242,Bourgneuf-en-Retz,bourgneuf en retz
StopArea:OCE87481259,Les Moutiers-en-Retz,les moutiers en retz
StopArea:OCE87481267,La Bernerie-en-Retz,la bernerie en retz
StopArea:OCE87481283,Pornic,pornic
StopArea:OCE87481366,Machecoul,machecoul
StopArea:OCE87481390,Challans,challans
StopArea:OCE87481408,Vertou,vertou
StopArea:OCE87481416,La Haie-Fouassi√®re,la haie fouassi re
StopArea:OCE87481424,Le Pallet,le pallet
StopArea:OCE87481432,Gorges,gorges
StopArea:OCE87481440,Clisson,clisson
StopArea:OCE87481457,Cugand,cugand
StopArea:OCE87481465,Montaigu,montaigu
StopArea:OCE87481564,La Chapelle Centre,la chapelle centre
StopArea:OCE87481598,Nort-sur-Erdre,nort sur erdre
StopArea:OCE87481614,Abbaretz,abbaretz
StopArea:OCE87481622,Iss√©,iss
StopArea:OCE87481648,Ch√¢teaubriant,ch teaubriant
StopArea:OCE87481689,La Croix de M√©an,la croix de m an
StopArea:OCE87481697,La Baule les Pins,la baule les pins
StopArea:OCE87481705,Saint-Nazaire,saint nazaire
StopArea:OCE87481713,Montoir-de-Bretagne,montoir de bretagne
StopArea:OCE87481721,Donges,donges
StopArea:OCE87481747,Pornichet,pornichet
StopArea:OCE87481754,La Baule-Escoublac,la baule escoublac
StopArea:OCE87481762,Le Pouliguen,le pouliguen
StopArea:OCE87481770,Batz-sur-Mer,batz sur mer
StopArea:OCE87481788,Le Croisic,le croisic
StopArea:OCE87481804,Cou√´ron,cou ron
StopArea:OCE87481812,Saint-√âtienne-de-Montluc,saint atienne de montluc
StopArea:OCE87481820,Cordemais,cordemais
StopArea:OCE87481838,Savenay,savenay
StopArea:OCE87481846,Pontch√¢teau,pontch teau
StopArea:OCE87484006,Angers Saint-Laud,angers saint laud
StopArea:OCE87484048,Angers Ma√Ætre √âcole,angers ma tre acole
StopArea:OCE87484139,Le Vieux Briollay,le vieux briollay
StopArea:OCE87484147,Tierc√©,tierc
StopArea:OCE87484154,√âtrich√© - Ch√¢teauneuf,atrich ch teauneuf
StopArea:OCE87484170,Morannes,morannes
StopArea:OCE87484204,Chalonnes,chalonnes
StopArea:OCE87484246,Chemill√©,chemill
StopArea:OCE87484303,Cholet,cholet
StopArea:OCE87484329,Savenni√®res - B√©huard,savenni res b huard
StopArea:OCE87484337,La Possonni√®re,la possonni re
StopArea:OCE87484352,Champtoc√©-sur-Loire,champtoc sur loire
StopArea:OCE87484360,Ingrandes,ingrandes
StopArea:OCE87484386,Varades - Saint-Florent-le-Vieil,varades saint florent le vieil
StopArea:OCE87484576,Lamure-sur-Azergues Coll√®ge,lamure sur azergues coll ge
StopArea:OCE87484584,Poule-les-√âcharmeaux Mairie,poule les acharmeaux mairie
StopArea:OCE87485003,La Rochelle,la rochelle
StopArea:OCE87485102,Angoulins sur Mer,angoulins sur mer
StopArea:OCE87485110,Ch√¢telaillon,ch telaillon
StopArea:OCE87485136,Saint-Laurent-de-la-Pr√©e - Fouras,saint laurent de la pr e fouras
StopArea:OCE87485144,Rochefort,rochefort
StopArea:OCE87485151,Tonnay-Charente,tonnay charente
StopArea:OCE87485185,La Jarrie,la jarrie
StopArea:OCE87485193,Aigrefeuille Le Thou,aigrefeuille le thou
StopArea:OCE87485227,Surg√®res,surg res
StopArea:OCE87485250,Mauz√©,mauz
StopArea:OCE87485268,Prin-Deyran√ßon,prin deyran on
StopArea:OCE87485300,Niort,niort
StopArea:OCE87485326,Fors,fors
StopArea:OCE87485334,Marigny,marigny
StopArea:OCE87485342,Beauvoir-sur-Niort,beauvoir sur niort
StopArea:OCE87485359,Priss√©-la-Charri√®re,priss la charri re
StopArea:OCE87485474,La Cr√®che,la cr che
StopArea:OCE87485490,Saint-Maixent-L'√âcole,saint maixent l acole
StopArea:OCE87485508,La Mothe-Saint-H√©ray,la mothe saint h ray
StopArea:OCE87485524,Pamproux,pamproux
StopArea:OCE87485532,Rouill√©,rouill
StopArea:OCE87485540,Lusignan,lusignan
StopArea:OCE87486019,La Roche-sur-Yon,la roche sur yon
StopArea:OCE87486126,L'Herbergement - Les Brouzils,l herbergement les brouzils
StopArea:OCE87486142,Belleville-Vend√©e,belleville vend e
StopArea:OCE87486258,Lu√ßon,lu on
StopArea:OCE87486308,La Chaize-le-Vicomte,la chaize le vicomte
StopArea:OCE87486316,Fouger√©,fouger
StopArea:OCE87486324,Bournezeau,bournezeau
StopArea:OCE87486332,Chantonnay,chantonnay
StopArea:OCE87486423,La Mothe-Achard,la mothe achard
StopArea:OCE87486431,Olonne-sur-Mer,olonne sur mer
StopArea:OCE87486449,Les Sables-d'Olonne,les sables d olonne
StopArea:OCE87486563,Saint-Hilaire-de-Riez,saint hilaire de riez
StopArea:OCE87486571,Saint-Gilles-Croix-de-Vie,saint gilles croix de vie
StopArea:OCE87486894,Torfou,torfou
StopArea:OCE87487009,Thouars,thouars
StopArea:OCE87487231,Noirterre,noirterre
StopArea:OCE87487249,Bressuire,bressuire
StopArea:OCE87487280,Cerizay,cerizay
StopArea:OCE87487298,Saint-Mesmin le Vieux,saint mesmin le vieux
StopArea:OCE87487314,Pouzauges,pouzauges
StopArea:OCE87487603,Saumur,saumur
StopArea:OCE87487611,Brion-pr√®s-Thouet,brion pr s thouet
StopArea:OCE87487637,Montreuil-Bellay,montreuil bellay
StopArea:OCE87487843,La Bohalle,la bohalle
StopArea:OCE87487876,Les Rosiers-sur-Loire,les rosiers sur loire
StopArea:OCE87487884,La M√©nitr√©,la m nitr
StopArea:OCE87487892,Saint-Mathurin,saint mathurin
StopArea:OCE87491001,Saintes,saintes
StopArea:OCE87491019,Bords,bords
StopArea:OCE87491035,Saint-Savinien,saint savinien
StopArea:OCE87491076,Beillant,beillant
StopArea:OCE87491100,Pons,pons
StopArea:OCE87491142,Jonzac,jonzac
StopArea:OCE87491183,Montendre,montendre
StopArea:OCE87491191,Bussac,bussac
StopArea:OCE87491209,Saint-Mariens - Saint-Yzan,saint mariens saint yzan
StopArea:OCE87491217,Cavignac,cavignac
StopArea:OCE87491225,Gauriaguet,gauriaguet
StopArea:OCE87491233,Aubie - Saint-Antoine,aubie saint antoine
StopArea:OCE87491241,Saint-Andr√©-de-Cubzac,saint andr de cubzac
StopArea:OCE87491258,Villeneuve-la-Comtesse,villeneuve la comtesse
StopArea:OCE87491266,Cubzac-les-Ponts,cubzac les ponts
StopArea:OCE87491274,La Grave d'Ambar√®s,la grave d ambar s
StopArea:OCE87491282,Sainte-Eulalie - Carbon-Blanc,sainte eulalie carbon blanc
StopArea:OCE87491290,Loulay,loulay
StopArea:OCE87491324,Saint-Hilaire - Brizambourg,saint hilaire brizambourg
StopArea:OCE87491357,Saint-Jean-d'Ang√©ly,saint jean d ang ly
StopArea:OCE87491449,Cognac,cognac
StopArea:OCE87491472,Jarnac,jarnac
StopArea:OCE87491506,Ch√¢teauneuf-sur-Charente,ch teauneuf sur charente
StopArea:OCE87491803,Royan,royan
StopArea:OCE87491811,Saujon,saujon
StopArea:OCE87497222,Chantenay-Saint-Imbert Bourg,chantenay saint imbert bourg
StopArea:OCE87497461,Gallieni-Canc√©rop√¥le,gallieni canc rop le
StopArea:OCE87499897,Decize Caf√© Bel-Air,decize caf bel air
StopArea:OCE87499913,Decize Ville,decize ville
StopArea:OCE87499939,Imphy Grand Vernay,imphy grand vernay
StopArea:OCE87499954,Imphy Square Lamartine,imphy square lamartine
StopArea:OCE87500082,Luzy Champs de Foire,luzy champs de foire
StopArea:OCE87500793,Nevers Le Mouesse ANPE,nevers le mouesse anpe
StopArea:OCE87500876,Saint-Ouen Arr√™t Cars,saint ouen arr t cars
StopArea:OCE87500900,Saint-Ouen le Port des Bois,saint ouen le port des bois
StopArea:OCE87500934,Sougy-sur-Loire BIF,sougy sur loire bif
StopArea:OCE87500991,Saint-L√©ger-des-Vignes Faubourg les Valettes,saint l ger des vignes faubourg les valettes
StopArea:OCE87501049,Tannay Place de l'√âglise,tannay place de l aglise
StopArea:OCE87503524,L'Habitarelle,l habitarelle
StopArea:OCE87515601,Longeville-sur-Mogne Mairie,longeville sur mogne mairie
StopArea:OCE87526574,Peyruis Parc Relais,peyruis parc relais
StopArea:OCE87533547,B√©ard Bourg,b ard bourg
StopArea:OCE87533596,Mulhouse Tour Nessel,mulhouse tour nessel
StopArea:OCE87533612,Daguerre,daguerre
StopArea:OCE87533620,Mulhouse Gare Centrale,mulhouse gare centrale
StopArea:OCE87533638,Mulhouse Mairie,mulhouse mairie
StopArea:OCE87533646,Mulhouse Porte Haute,mulhouse porte haute
StopArea:OCE87533653,Porte Jeune,porte jeune
StopArea:OCE87533661,Mulhouse R√©publique,mulhouse r publique
StopArea:OCE87534099,Bort-les-Orgues Ville,bort les orgues ville
StopArea:OCE87534321,Mulhouse Dornach Tram Train,mulhouse dornach tram train
StopArea:OCE87534339,Mulhouse Mus√©es,mulhouse mus es
StopArea:OCE87534347,Lutterbach Tram-train,lutterbach tram train
StopArea:OCE87535096,Aubenas Gare Routi√®re,aubenas gare routi re
StopArea:OCE87543009,Orl√©ans,orl ans
StopArea:OCE87543017,Les Aubrais,les aubrais
StopArea:OCE87543033,Cercottes,cercottes
StopArea:OCE87543041,Chevilly,chevilly
StopArea:OCE87543058,Artenay,artenay
StopArea:OCE87543066,Ch√¢teau-Gaillard,ch teau gaillard
StopArea:OCE87543074,Toury,toury
StopArea:OCE87543082,Boisseaux,boisseaux
StopArea:OCE87543090,Angerville,angerville
StopArea:OCE87543116,Saint-Cyr-en-Val,saint cyr en val
StopArea:OCE87543124,La Fert√©-Saint-Aubin,la fert saint aubin
StopArea:OCE87543140,Lamotte-Beuvron,lamotte beuvron
StopArea:OCE87543157,Nouan-le-Fuzelier,nouan le fuzelier
StopArea:OCE87543165,Salbris,salbris
StopArea:OCE87543199,Theillay,theillay
StopArea:OCE87543371,La Chapelle-Saint-Mesmin,la chapelle saint mesmin
StopArea:OCE87545111,Monnerville,monnerville
StopArea:OCE87545129,Guillerval,guillerval
StopArea:OCE87545137,√âtampes,atampes
StopArea:OCE87545244,Juvisy,juvisy
StopArea:OCE87545525,Dourdan,dourdan
StopArea:OCE87545657,Auneau,auneau
StopArea:OCE87545707,Voves,voves
StopArea:OCE87545731,Bonneval,bonneval
StopArea:OCE87545756,Ch√¢teaudun,ch teaudun
StopArea:OCE87546192,Pont de Rungis A√©roport d'Orly,pont de rungis a roport d orly
StopArea:OCE87547000,Paris Austerlitz,paris austerlitz
StopArea:OCE87552141,Ribeauville Gare Routi√®re,ribeauville gare routi re
StopArea:OCE87556506,Valence Gare Routi√®re,valence gare routi re
StopArea:OCE87556522,Montelimar Gare Routi√®re,montelimar gare routi re
StopArea:OCE87559070,Nevers le Banlay,nevers le banlay
StopArea:OCE87562421,Aulnat A√©roport,aulnat a roport
StopArea:OCE87565143,Halte de Fontanil - Lyc√©e de Drap,halte de fontanil lyc e de drap
StopArea:OCE87566919,Lentilly Charpenay,lentilly charpenay
StopArea:OCE87571000,Tours,tours
StopArea:OCE87571216,Vend√¥me - Villiers-sur-Loir,vend me villiers sur loir
StopArea:OCE87571240,Saint-Pierre-des-Corps,saint pierre des corps
StopArea:OCE87571273,Montlouis,montlouis
StopArea:OCE87571406,Montbazon,montbazon
StopArea:OCE87571414,Veign√©,veign
StopArea:OCE87571422,Esvres-sur-Indre,esvres sur indre
StopArea:OCE87571430,Cormery,cormery
StopArea:OCE87571448,Courcay - Tauxigny,courcay tauxigny
StopArea:OCE87571455,Reignac,reignac
StopArea:OCE87571463,Chambourg,chambourg
StopArea:OCE87571471,Loches,loches
StopArea:OCE87571505,Fondettes - Saint-Cyr-sur-Loire,fondettes saint cyr sur loire
StopArea:OCE87571513,La Membrolle-sur-Choisille,la membrolle sur choisille
StopArea:OCE87571539,Saint-Antoine-du-Rocher,saint antoine du rocher
StopArea:OCE87571547,Neuill√©-Pont-Pierre,neuill pont pierre
StopArea:OCE87571554,Saint-Paterne,saint paterne
StopArea:OCE87571604,Ballan,ballan
StopArea:OCE87571612,Druye,druye
StopArea:OCE87571638,Azay-le-Rideau,azay le rideau
StopArea:OCE87571653,Rivarennes,rivarennes
StopArea:OCE87571687,Chinon,chinon
StopArea:OCE87571794,Port Boulet,port boulet
StopArea:OCE87571802,La Chapelle-sur-Loire,la chapelle sur loire
StopArea:OCE87571810,Saint-Patrice,saint patrice
StopArea:OCE87571828,Langeais,langeais
StopArea:OCE87571836,Cinq-Mars-la-Pile,cinq mars la pile
StopArea:OCE87571844,Savonni√®res,savonni res
StopArea:OCE87571851,Saint-Genouph,saint genouph
StopArea:OCE87571885,Jou√©-l√®s-Tours,jou l s tours
StopArea:OCE87574004,Blois - Chambord,blois chambord
StopArea:OCE87574111,Chaingy Fourneaux Plage,chaingy fourneaux plage
StopArea:OCE87574129,Saint-Ay,saint ay
StopArea:OCE87574137,Meung-sur-Loire,meung sur loire
StopArea:OCE87574152,Baule,baule
StopArea:OCE87574160,Beaugency,beaugency
StopArea:OCE87574194,Mer,mer
StopArea:OCE87574236,Su√®vres,su vres
StopArea:OCE87574244,Menars,menars
StopArea:OCE87574251,La Chauss√©e-Saint-Victor,la chauss e saint victor
StopArea:OCE87574301,Chouzy,chouzy
StopArea:OCE87574319,Onzain - Chaumont-sur-Loire,onzain chaumont sur loire
StopArea:OCE87574327,Veuves - Monteaux,veuves monteaux
StopArea:OCE87574335,Limeray,limeray
StopArea:OCE87574343,Amboise,amboise
StopArea:OCE87574368,Noizay,noizay
StopArea:OCE87574434,V√©retz - Montlouis,v retz montlouis
StopArea:OCE87574442,Azay-sur-Cher,azay sur cher
StopArea:OCE87574459,Saint-Martin-le-Beau,saint martin le beau
StopArea:OCE87574475,Bl√©r√© - la Croix,bl r la croix
StopArea:OCE87574491,Chenonceaux,chenonceaux
StopArea:OCE87574509,Cloyes,cloyes
StopArea:OCE87574533,Fr√©teval - Mor√©e,fr teval mor e
StopArea:OCE87574541,Pezou,pezou
StopArea:OCE87574558,Vend√¥me,vend me
StopArea:OCE87574640,Saint-Amand de Vend√¥me,saint amand de vend me
StopArea:OCE87574665,Ch√¢teau-Renault,ch teau renault
StopArea:OCE87574681,Monnaie,monnaie
StopArea:OCE87574699,Notre-Dame-d'O√©,notre dame d o
StopArea:OCE87574848,Chissay-en-Touraine,chissay en touraine
StopArea:OCE87574855,Montrichard,montrichard
StopArea:OCE87574897,Saint-Aignan - Noyers,saint aignan noyers
StopArea:OCE87575001,Poitiers,poitiers
StopArea:OCE87575035,Monts,monts
StopArea:OCE87575043,Villeperdue,villeperdue
StopArea:OCE87575050,Sainte-Maure - Noyant,sainte maure noyant
StopArea:OCE87575068,Maill√©,maill
StopArea:OCE87575076,Port-de-Piles,port de piles
StopArea:OCE87575118,Les Ormes,les ormes
StopArea:OCE87575126,Dang√©-Saint-Romain,dang saint romain
StopArea:OCE87575134,Ingrandes sur Vienne,ingrandes sur vienne
StopArea:OCE87575142,Ch√¢tellerault,ch tellerault
StopArea:OCE87575167,Nerpuy,nerpuy
StopArea:OCE87575175,Naintr√© les Barres,naintr les barres
StopArea:OCE87575183,La Tricherie,la tricherie
StopArea:OCE87575191,Dissay,dissay
StopArea:OCE87575217,Jaunay-Clan,jaunay clan
StopArea:OCE87575225,Chasseneuil-du-Poitou,chasseneuil du poitou
StopArea:OCE87575274,Ligug√©,ligug
StopArea:OCE87575290,Vivonne,vivonne
StopArea:OCE87575332,Anch√© - Voulon,anch voulon
StopArea:OCE87575357,√âpanvilliers,apanvilliers
StopArea:OCE87575365,Saint-Saviol,saint saviol
StopArea:OCE87575480,Montmorillon,montmorillon
StopArea:OCE87575498,Lathus,lathus
StopArea:OCE87575704,Mignaloux - Nouaill√©,mignaloux nouaill
StopArea:OCE87575845,Lussac-les-Ch√¢teaux,lussac les ch teaux
StopArea:OCE87576009,Vierzon,vierzon
StopArea:OCE87576025,Romorantin Blanc Argent,romorantin blanc argent
StopArea:OCE87576082,La Fert√©-Imbault,la fert imbault
StopArea:OCE87576090,Vierzon Forges,vierzon forges
StopArea:OCE87576108,Fo√´cy,fo cy
StopArea:OCE87576116,Mehun-sur-Y√®vre,mehun sur y vre
StopArea:OCE87576132,Marmagne,marmagne
StopArea:OCE87576140,Selles-Saint-Denis,selles saint denis
StopArea:OCE87576157,Loreux,loreux
StopArea:OCE87576165,Villeherviers,villeherviers
StopArea:OCE87576173,Faubourg d'Orl√©ans,faubourg d orl ans
StopArea:OCE87576181,Les Quatre Roues,les quatre roues
StopArea:OCE87576199,Pruniers,pruniers
StopArea:OCE87576207,Bourges,bourges
StopArea:OCE87576215,Valen√ßay,valen ay
StopArea:OCE87576223,Chabris,chabris
StopArea:OCE87576231,Varennes-sur-Fouzon,varennes sur fouzon
StopArea:OCE87576272,Saint-Florent-sur-Cher,saint florent sur cher
StopArea:OCE87576280,Lunery,lunery
StopArea:OCE87576298,Ch√¢teauneuf-sur-Cher,ch teauneuf sur cher
StopArea:OCE87576306,Bigny,bigny
StopArea:OCE87576322,Saint-Amand-Montrond - Orval,saint amand montrond orval
StopArea:OCE87576348,Ur√ßay,ur ay
StopArea:OCE87576355,La Gauterie,la gauterie
StopArea:OCE87576363,Lu√ßay-le-M√¢le,lu ay le m le
StopArea:OCE87576405,Saint-Germain-du-Puy,saint germain du puy
StopArea:OCE87576439,Avord,avord
StopArea:OCE87576447,Bengy,bengy
StopArea:OCE87576454,N√©rondes,n rondes
StopArea:OCE87576470,La Guerche-sur-l'Aubois,la guerche sur l aubois
StopArea:OCE87576728,Mennetou-sur-Cher,mennetou sur cher
StopArea:OCE87576868,Selles-sur-Cher,selles sur cher
StopArea:OCE87576876,Gi√®vres,gi vres
StopArea:OCE87576884,Villefranche-sur-Cher,villefranche sur cher
StopArea:OCE87577403,Iteuil,iteuil
StopArea:OCE87578229,Bayard-Route-Eurville,bayard route eurville
StopArea:OCE87580340,Marseille Arenc Eurom√©diterran√©e,marseille arenc eurom diterran e
StopArea:OCE87581009,Bordeaux Saint-Jean,bordeaux saint jean
StopArea:OCE87581181,Ludon,ludon
StopArea:OCE87581199,Macau,macau
StopArea:OCE87581215,Margaux,margaux
StopArea:OCE87581231,Moulis - Listrac,moulis listrac
StopArea:OCE87581256,Pauillac,pauillac
StopArea:OCE87581314,Lesparre,lesparre
StopArea:OCE87581371,Soulac-sur-Mer,soulac sur mer
StopArea:OCE87581389,Le Verdon,le verdon
StopArea:OCE87581538,Caud√©ran-M√©rignac,caud ran m rignac
StopArea:OCE87581595,Cenon,cenon
StopArea:OCE87581710,Parempuyre,parempuyre
StopArea:OCE87581728,Blanquefort,blanquefort
StopArea:OCE87581736,Bruges,bruges
StopArea:OCE87581751,Pessac,pessac
StopArea:OCE87581793,Pessac-Alouette,pessac alouette
StopArea:OCE87581801,B√®gles,b gles
StopArea:OCE87581835,Villenave-d'Ornon,villenave d ornon
StopArea:OCE87581850,Bassens,bassens
StopArea:OCE87582346,Bo√©,bo
StopArea:OCE87582353,Sainte-M√®re,sainte m re
StopArea:OCE87582403,Gazinet - Cestas,gazinet cestas
StopArea:OCE87582445,Marcheprime,marcheprime
StopArea:OCE87582478,Biganos Facture,biganos facture
StopArea:OCE87582536,Ychoux,ychoux
StopArea:OCE87582551,Labouheyre,labouheyre
StopArea:OCE87582601,Le Teich,le teich
StopArea:OCE87582619,Gujan-Mestras,gujan mestras
StopArea:OCE87582635,La Hume,la hume
StopArea:OCE87582643,La Teste,la teste
StopArea:OCE87582668,Arcachon,arcachon
StopArea:OCE87582684,Cadaujac,cadaujac
StopArea:OCE87582692,Saint-M√©dard-d'Eyrans,saint m dard d eyrans
StopArea:OCE87582700,Beautiran,beautiran
StopArea:OCE87582718,Portets,portets
StopArea:OCE87582726,Arbanats,arbanats
StopArea:OCE87582734,Podensac,podensac
StopArea:OCE87582742,C√©rons,c rons
StopArea:OCE87582759,Barsac,barsac
StopArea:OCE87582767,Preignac,preignac
StopArea:OCE87582775,Langon,langon
StopArea:OCE87582825,Saint-Macaire,saint macaire
StopArea:OCE87582833,Saint-Pierre-d'Aurillac,saint pierre d aurillac
StopArea:OCE87582841,Caudrot,caudrot
StopArea:OCE87582858,Gironde,gironde
StopArea:OCE87582866,La R√©ole,la r ole
StopArea:OCE87582882,Lamothe-Landerron,lamothe landerron
StopArea:OCE87583005,Angoul√™me,angoul me
StopArea:OCE87583617,La Couronne Charente,la couronne charente
StopArea:OCE87583674,Montmoreau,montmoreau
StopArea:OCE87583690,Chalais,chalais
StopArea:OCE87583823,Lux√©,lux
StopArea:OCE87583849,Ruffec,ruffec
StopArea:OCE87584052,Libourne,libourne
StopArea:OCE87584102,Saint-√âmilion,saint amilion
StopArea:OCE87584136,Castillon,castillon
StopArea:OCE87584151,Lamothe-Montravel,lamothe montravel
StopArea:OCE87584177,V√©lines,v lines
StopArea:OCE87584193,Sainte-Foy-la-Grande,sainte foy la grande
StopArea:OCE87584201,Saint-Antoine-de-Breuilh,saint antoine de breuilh
StopArea:OCE87584235,Gardonne,gardonne
StopArea:OCE87584243,Lamonzie-Saint-Martin,lamonzie saint martin
StopArea:OCE87584268,Bergerac,bergerac
StopArea:OCE87584441,Lalinde,lalinde
StopArea:OCE87584466,Mauzac,mauzac
StopArea:OCE87584474,Tr√©molat,tr molat
StopArea:OCE87584508,Saint-Denis-de-Pile,saint denis de pile
StopArea:OCE87584516,Coutras,coutras
StopArea:OCE87584532,Les √âglisottes,les aglisottes
StopArea:OCE87584540,Saint-Aigulin - La Roche-Chalais,saint aigulin la roche chalais
StopArea:OCE87584607,Saint-M√©dard-de-Guizi√®res,saint m dard de guizi res
StopArea:OCE87584615,Saint-Seurin-sur-l'Isle,saint seurin sur l isle
StopArea:OCE87584714,Vayres,vayres
StopArea:OCE87584722,Saint-Sulpice - Izon,saint sulpice izon
StopArea:OCE87584730,Saint-Loub√®s,saint loub s
StopArea:OCE87584755,La Gorp,la gorp
StopArea:OCE87586008,Agen,agen
StopArea:OCE87586107,Port-Sainte-Marie,port sainte marie
StopArea:OCE87586263,Lectoure,lectoure
StopArea:OCE87586305,Layrac,layrac
StopArea:OCE87586313,Goulens,goulens
StopArea:OCE87586321,Astaffort,astaffort
StopArea:OCE87586339,Fleurance All√©e Aristide Briand,fleurance all e aristide briand
StopArea:OCE87586347,Montestruc-sur-Gers,montestruc sur gers
StopArea:OCE87586362,Sainte-Christie,sainte christie
StopArea:OCE87586370,Rambert Preignan,rambert preignan
StopArea:OCE87586412,Laroque,laroque
StopArea:OCE87586438,Penne,penne
StopArea:OCE87586453,Monsempron-Libos,monsempron libos
StopArea:OCE87586479,Sainte-Bazeille,sainte bazeille
StopArea:OCE87586495,Sauveterre-la-L√©mance,sauveterre la l mance
StopArea:OCE87586545,Marmande,marmande
StopArea:OCE87586651,Tonneins,tonneins
StopArea:OCE87586693,Aiguillon,aiguillon
StopArea:OCE87589200,Ragegat,ragegat
StopArea:OCE87589564,Gannat Lycee Eiffel,gannat lycee eiffel
StopArea:OCE87589572,Gannat Lycee Ste Procule,gannat lycee ste procule
StopArea:OCE87589580,La Ville Gozet Square H. Duna,la ville gozet square h duna
StopArea:OCE87589598,Le Puy En Velay H√¥pital E.Roux,le puy en velay h pital e roux
StopArea:OCE87589804,Reugny Rue De La Bascul,reugny rue de la bascul
StopArea:OCE87590299,Nice Pont Michel,nice pont michel
StopArea:OCE87590331,Haluch√®re Batignolles Beaujoire,haluch re batignolles beaujoire
StopArea:OCE87590349,Babini√®re,babini re
StopArea:OCE87590356,Erdre-Active,erdre active
StopArea:OCE87590364,La Chapelle - Aulnay,la chapelle aulnay
StopArea:OCE87590372,Ch√¢teaubriant Tram Train,ch teaubriant tram train
StopArea:OCE87590828,Suc√©-sur-Erdre,suc sur erdre
StopArea:OCE87592006,Limoges B√©n√©dictins,limoges b n dictins
StopArea:OCE87592022,Limoges Montjovis,limoges montjovis
StopArea:OCE87592048,Les Bardys,les bardys
StopArea:OCE87592055,Saint-Priest-Taurion,saint priest taurion
StopArea:OCE87592063,Brignac,brignac
StopArea:OCE87592071,Saint-L√©onard-de-Noblat,saint l onard de noblat
StopArea:OCE87592097,Saint-Denis-des-Murs,saint denis des murs
StopArea:OCE87592105,Ch√¢teauneuf - Bujaleuf,ch teauneuf bujaleuf
StopArea:OCE87592121,Eymoutiers Vassivi√®re,eymoutiers vassivi re
StopArea:OCE87592147,Lacelle Corr√®ze,lacelle corr ze
StopArea:OCE87592162,Bugeat,bugeat
StopArea:OCE87592170,P√©rols-sur-V√©z√®re,p rols sur v z re
StopArea:OCE87592246,Solignac - Le Vigen,solignac le vigen
StopArea:OCE87592253,Pierre-Buffi√®re,pierre buffi re
StopArea:OCE87592279,Magnac - Vicq,magnac vicq
StopArea:OCE87592287,Saint-Germain-les-Belles,saint germain les belles
StopArea:OCE87592295,La Porcherie,la porcherie
StopArea:OCE87592311,Ambazac,ambazac
StopArea:OCE87592337,La Jonch√®re,la jonch re
StopArea:OCE87592345,Saint-Sulpice-Lauri√®re,saint sulpice lauri re
StopArea:OCE87592352,Bersac,bersac
StopArea:OCE87592360,Fromental,fromental
StopArea:OCE87592378,La Souterraine,la souterraine
StopArea:OCE87592410,Nieul,nieul
StopArea:OCE87592428,Peyrilhac - Saint-Jouvent,peyrilhac saint jouvent
StopArea:OCE87592444,Nantiat,nantiat
StopArea:OCE87592485,Bellac,bellac
StopArea:OCE87592493,Saint-S√©bastien,saint s bastien
StopArea:OCE87592501,La Coquille,la coquille
StopArea:OCE87592543,Le Dorat,le dorat
StopArea:OCE87592634,L'Aiguille,l aiguille
StopArea:OCE87592667,Aixe-sur-Vienne,aixe sur vienne
StopArea:OCE87592683,Saint-Victurnien,saint victurnien
StopArea:OCE87592691,Saint-Brice-sur-Vienne,saint brice sur vienne
StopArea:OCE87592709,Saint-Junien,saint junien
StopArea:OCE87592717,Saillat - Chassenon,saillat chassenon
StopArea:OCE87592725,Nexon,nexon
StopArea:OCE87592733,Lafarge,lafarge
StopArea:OCE87592741,Bussi√®re-Galant,bussi re galant
StopArea:OCE87592808,La Meyze,la meyze
StopArea:OCE87592824,Saint-Yrieix,saint yrieix
StopArea:OCE87594002,Brive-la-Gaillarde,brive la gaillarde
StopArea:OCE87594085,Jassonneix,jassonneix
StopArea:OCE87594093,Ussel,ussel
StopArea:OCE87594119,Corr√®ze,corr ze
StopArea:OCE87594135,Montaignac,montaignac
StopArea:OCE87594168,√âgletons,agletons
StopArea:OCE87594200,Uzerche,uzerche
StopArea:OCE87594218,Vigeois,vigeois
StopArea:OCE87594234,Allassac,allassac
StopArea:OCE87594275,Meymac,meymac
StopArea:OCE87594325,Gignac - Cressensac,gignac cressensac
StopArea:OCE87594333,Souillac,souillac
StopArea:OCE87594382,Condat - Le Lardin,condat le lardin
StopArea:OCE87594408,Terrasson,terrasson
StopArea:OCE87594416,La Rivi√®re de Mansac,la rivi re de mansac
StopArea:OCE87594465,Aubazines - Saint-Hilaire,aubazines saint hilaire
StopArea:OCE87594481,Cornil,cornil
StopArea:OCE87594499,Tulle,tulle
StopArea:OCE87594556,Turenne,turenne
StopArea:OCE87594564,Les Quatre-Routes,les quatre routes
StopArea:OCE87594572,Saint-Denis-Pr√®s-Martel,saint denis pr s martel
StopArea:OCE87594606,Varetz,varetz
StopArea:OCE87594614,Le Burg,le burg
StopArea:OCE87594622,Saint-Aulaire,saint aulaire
StopArea:OCE87594630,Objat,objat
StopArea:OCE87594713,Martel,martel
StopArea:OCE87594739,Vayrac,vayrac
StopArea:OCE87594747,B√©taille,b taille
StopArea:OCE87594754,Puybrun,puybrun
StopArea:OCE87594762,Bretenoux - Biars,bretenoux biars
StopArea:OCE87594796,Laval-de-C√®re,laval de c re
StopArea:OCE87594820,Masseret,masseret
StopArea:OCE87595009,P√©rigueux,p rigueux
StopArea:OCE87595124,Thiviers,thiviers
StopArea:OCE87595132,N√©grondes,n grondes
StopArea:OCE87595157,Agonac,agonac
StopArea:OCE87595165,Ch√¢teau-l'√âv√™que,ch teau l av que
StopArea:OCE87595207,Marsac Dordogne,marsac dordogne
StopArea:OCE87595223,Razac,razac
StopArea:OCE87595249,Saint-Astier,saint astier
StopArea:OCE87595264,Saint-L√©on-sur-l'Isle,saint l on sur l isle
StopArea:OCE87595272,Neuvic,neuvic
StopArea:OCE87595298,Mussidan,mussidan
StopArea:OCE87595322,Montpon-M√©nest√©rol,montpon m nest rol
StopArea:OCE87595512,Niversac,niversac
StopArea:OCE87595520,Saint-Pierre-de-Chignac,saint pierre de chignac
StopArea:OCE87595579,Thenon,thenon
StopArea:OCE87595702,Les Versannes,les versannes
StopArea:OCE87595736,Les Eyzies,les eyzies
StopArea:OCE87595744,Le Bugue,le bugue
StopArea:OCE87595751,Le Buisson,le buisson
StopArea:OCE87595769,Siorac-en-P√©rigord,siorac en p rigord
StopArea:OCE87595777,Saint-Cyprien,saint cyprien
StopArea:OCE87595827,Sarlat,sarlat
StopArea:OCE87595876,Belv√®s,belv s
StopArea:OCE87595892,Villefranche-du-P√©rigord,villefranche du p rigord
StopArea:OCE87595983,La Walck Monument Aux Morts,la walck monument aux morts
StopArea:OCE87597005,Ch√¢teauroux,ch teauroux
StopArea:OCE87597039,Reuilly,reuilly
StopArea:OCE87597054,Sainte-Lizaigne,sainte lizaigne
StopArea:OCE87597062,Issoudun,issoudun
StopArea:OCE87597070,Neuvy-Pailloux,neuvy pailloux
StopArea:OCE87597096,Luant,luant
StopArea:OCE87597104,Lothiers,lothiers
StopArea:OCE87597112,Chabenet,chabenet
StopArea:OCE87597120,Argenton-sur-Creuse,argenton sur creuse
StopArea:OCE87597153,√âguzon,aguzon
StopArea:OCE87597609,Gu√©ret,gu ret
StopArea:OCE87597625,Marsac,marsac
StopArea:OCE87597633,Vieilleville,vieilleville
StopArea:OCE87597674,Montaigut,montaigut
StopArea:OCE87597708,Busseau sur Creuse,busseau sur creuse
StopArea:OCE87597724,Parsac - Gouzon,parsac gouzon
StopArea:OCE87597740,Lavaufranche,lavaufranche
StopArea:OCE87598219,Le Locle Col des Roches,le locle col des roches
StopArea:OCE87598755,Limoux - Flassian,limoux flassian
StopArea:OCE87599753,Nevers Petit Canal,nevers petit canal
StopArea:OCE87611004,Toulouse Matabiau,toulouse matabiau
StopArea:OCE87611038,Muret,muret
StopArea:OCE87611046,Le Fauga,le fauga
StopArea:OCE87611053,Longages - No√©,longages no
StopArea:OCE87611061,Carbonne,carbonne
StopArea:OCE87611079,Caz√®res,caz res
StopArea:OCE87611087,Martres-Tolosane,martres tolosane
StopArea:OCE87611095,Boussens,boussens
StopArea:OCE87611103,Saint-Martory,saint martory
StopArea:OCE87611137,Saint-Gaudens,saint gaudens
StopArea:OCE87611152,Montr√©jeau - Gourdan-Polignan,montr jeau gourdan polignan
StopArea:OCE87611178,Loures - Barbazan,loures barbazan
StopArea:OCE87611194,Marignac - Saint-B√©at,marignac saint b at
StopArea:OCE87611236,Luchon,luchon
StopArea:OCE87611244,Montauban Ville Bourbon,montauban ville bourbon
StopArea:OCE87611301,Saint-Agne,saint agne
StopArea:OCE87611327,Varilhes,varilhes
StopArea:OCE87611343,Pamiers,pamiers
StopArea:OCE87611350,Le Vernet d'Ari√®ge,le vernet d ari ge
StopArea:OCE87611368,Saverdun,saverdun
StopArea:OCE87611376,Cintegabelle,cintegabelle
StopArea:OCE87611384,Auterive,auterive
StopArea:OCE87611392,Venerque - Le Vernet,venerque le vernet
StopArea:OCE87611400,Portet Saint-Simon,portet saint simon
StopArea:OCE87611434,Lacourtensourt,lacourtensourt
StopArea:OCE87611459,Lavilledieu,lavilledieu
StopArea:OCE87611467,Colomiers,colomiers
StopArea:OCE87611475,Larrazet,larrazet
StopArea:OCE87611483,Latour-de-Carol - Enveitg,latour de carol enveitg
StopArea:OCE87611509,Port√©-Puymorens,port puymorens
StopArea:OCE87611517,Andorre l'Hospitalet,andorre l hospitalet
StopArea:OCE87611525,M√©rens-les-Vals,m rens les vals
StopArea:OCE87611533,Ax-les-Thermes,ax les thermes
StopArea:OCE87611558,Luzenac - Garanou,luzenac garanou
StopArea:OCE87611566,V√®bre,v bre
StopArea:OCE87611574,Les Cabannes,les cabannes
StopArea:OCE87611582,Ussat les Bains,ussat les bains
StopArea:OCE87611590,Tarascon-sur-Ari√®ge,tarascon sur ari ge
StopArea:OCE87611608,Saint-Paul - Saint-Antoine,saint paul saint antoine
StopArea:OCE87611616,Foix,foix
StopArea:OCE87611624,Saint-Jean-de-Verges,saint jean de verges
StopArea:OCE87611657,Saint-Jory,saint jory
StopArea:OCE87611665,Castelnau-d'Estr√©tefonds,castelnau d estr tefonds
StopArea:OCE87611673,Grisolles,grisolles
StopArea:OCE87611681,Dieupentale,dieupentale
StopArea:OCE87611699,Montbartier,montbartier
StopArea:OCE87611707,Escalquens,escalquens
StopArea:OCE87611723,Bazi√®ge,bazi ge
StopArea:OCE87611749,Auch,auch
StopArea:OCE87611764,Aubiet,aubiet
StopArea:OCE87611772,Gimont Cahuzac,gimont cahuzac
StopArea:OCE87611806,L'Isle-Jourdain,l isle jourdain
StopArea:OCE87611814,M√©renvielle,m renvielle
StopArea:OCE87611822,Brax - L√©guevin,brax l guevin
StopArea:OCE87611830,Pibrac,pibrac
StopArea:OCE87611848,Montrab√©,montrab
StopArea:OCE87611855,Lamagist√®re,lamagist re
StopArea:OCE87611863,Valence d'Agen,valence d agen
StopArea:OCE87611889,Moissac,moissac
StopArea:OCE87611897,Castelsarrasin,castelsarrasin
StopArea:OCE87611921,Colomiers Lyc√©e International,colomiers lyc e international
StopArea:OCE87611939,Lardenne,lardenne
StopArea:OCE87612002,Lab√®ge Innopole,lab ge innopole
StopArea:OCE87612010,Montaudran,montaudran
StopArea:OCE87612028,Lab√®ge Village,lab ge village
StopArea:OCE87613000,Cahors,cahors
StopArea:OCE87613042,Rocamadour - Padirac,rocamadour padirac
StopArea:OCE87613059,Gramat,gramat
StopArea:OCE87613075,Assier,assier
StopArea:OCE87613091,Figeac,figeac
StopArea:OCE87613109,Capdenac,capdenac
StopArea:OCE87613141,Gourdon,gourdon
StopArea:OCE87613174,D√©gagnac,d gagnac
StopArea:OCE87613224,Aubin,aubin
StopArea:OCE87613232,Cransac,cransac
StopArea:OCE87613257,Saint-Christophe,saint christophe
StopArea:OCE87613323,Lalbenque - Fontanes,lalbenque fontanes
StopArea:OCE87613356,Caussade,caussade
StopArea:OCE87613398,Albias,albias
StopArea:OCE87613422,Rodez,rodez
StopArea:OCE87613463,Najac,najac
StopArea:OCE87613471,Lagu√©pie,lagu pie
StopArea:OCE87613489,Lexos,lexos
StopArea:OCE87613604,Bagnac,bagnac
StopArea:OCE87613661,Viviez - Decazeville,viviez decazeville
StopArea:OCE87613802,Cordes - Vindrac,cordes vindrac
StopArea:OCE87613877,Salles-Courbati√®s,salles courbati s
StopArea:OCE87613885,Villeneuve-d'Aveyron,villeneuve d aveyron
StopArea:OCE87613893,Villefranche-de-Rouergue,villefranche de rouergue
StopArea:OCE87615005,Albi Ville,albi ville
StopArea:OCE87615013,Villefranche-de-Lauragais,villefranche de lauragais
StopArea:OCE87615039,Castelnaudary,castelnaudary
StopArea:OCE87615054,Bram,bram
StopArea:OCE87615112,L√©zignan-Corbi√®res,l zignan corbi res
StopArea:OCE87615120,Couffoulens - Leuc,couffoulens leuc
StopArea:OCE87615138,Verzeille,verzeille
StopArea:OCE87615146,Pomas,pomas
StopArea:OCE87615161,Limoux,limoux
StopArea:OCE87615187,Alet-les-Bains,alet les bains
StopArea:OCE87615195,Albi Madeleine,albi madeleine
StopArea:OCE87615203,Couiza - Montazels,couiza montazels
StopArea:OCE87615211,Esp√©raza,esp raza
StopArea:OCE87615245,Tessonni√®res,tessonni res
StopArea:OCE87615252,Gaillac,gaillac
StopArea:OCE87615260,Quillan,quillan
StopArea:OCE87615286,Carcassonne,carcassonne
StopArea:OCE87615310,Lisle-sur-Tarn,lisle sur tarn
StopArea:OCE87615328,Rabastens - Couffouleux,rabastens couffouleux
StopArea:OCE87615344,Saint-Sulpice,saint sulpice
StopArea:OCE87615351,Roques√©ri√®re - Buzet,roques ri re buzet
StopArea:OCE87615369,Montastruc-la-Conseill√®re,montastruc la conseill re
StopArea:OCE87615377,Gragnague,gragnague
StopArea:OCE87615419,Marssac-sur-tarn,marssac sur tarn
StopArea:OCE87615468,Castres,castres
StopArea:OCE87615476,Lavaur,lavaur
StopArea:OCE87615484,Damiatte - Saint-Paul,damiatte saint paul
StopArea:OCE87615492,Vielmur-sur-Agout,vielmur sur agout
StopArea:OCE87615526,Labrugui√®re,labrugui re
StopArea:OCE87615542,Mazamet,mazamet
StopArea:OCE87615625,Carmaux,carmaux
StopArea:OCE87615674,Tanus,tanus
StopArea:OCE87615732,Naucelle,naucelle
StopArea:OCE87615757,Baraqueville,baraqueville
StopArea:OCE87615773,Luc-Primaube,luc primaube
StopArea:OCE87616011,Avignonet,avignonet
StopArea:OCE87618116,Pins-Justaret,pins justaret
StopArea:OCE87618207,Montlaur,montlaur
StopArea:OCE87618215,Villenouvelle,villenouvelle
StopArea:OCE87618348,Mercus-Garrabet,mercus garrabet
StopArea:OCE87618710,Sal√©chan - Siradan,sal chan siradan
StopArea:OCE87635367,Montgen√®vre Gare Routi√®re,montgen vre gare routi re
StopArea:OCE87635581,La Barasse,la barasse
StopArea:OCE87635771,Lemberg Mairie,lemberg mairie
StopArea:OCE87635821,Koenigsmacker Centre,koenigsmacker centre
StopArea:OCE87635847,Sierck-les-Bains Place Morbach,sierck les bains place morbach
StopArea:OCE87635854,Apach √âglise,apach aglise
StopArea:OCE87635862,Les Islettes Centre,les islettes centre
StopArea:OCE87635870,Clermont-en-Argonne Centre,clermont en argonne centre
StopArea:OCE87635920,Suippes Camp,suippes camp
StopArea:OCE87635938,Sainte-M√©n√©hould M√©diath√®que,sainte m n hould m diath que
StopArea:OCE87639922,Minversheim Rue Principale,minversheim rue principale
StopArea:OCE87639930,Alteckendorf Eckendorf,alteckendorf eckendorf
StopArea:OCE87639948,Alteckendorf Mairie,alteckendorf mairie
StopArea:OCE87639955,Alteckendorf Altdorf,alteckendorf altdorf
StopArea:OCE87639963,Ettendorf Place de l'√©cole,ettendorf place de l cole
StopArea:OCE87639971,Ettendorf  Rue du Pont,ettendorf rue du pont
StopArea:OCE87640144,Suippes Garage,suippes garage
StopArea:OCE87640375,S√©lestat  Schweisguth,s lestat schweisguth
StopArea:OCE87640383,S√©lestat Koeberl√©,s lestat koeberl
StopArea:OCE87640391,S√©lestat Schwilgu√©,s lestat schwilgu
StopArea:OCE87640409,S√©lestat R. Ste-Marie-a.-Mines,s lestat r ste marie a mines
StopArea:OCE87640441,Ch√¢tenois Gare,ch tenois gare
StopArea:OCE87640458,Ch√¢tenois Val-de-Vill√© Gare,ch tenois val de vill gare
StopArea:OCE87640466,La Vancelle Hurst,la vancelle hurst
StopArea:OCE87640474,La Vancelle Centre,la vancelle centre
StopArea:OCE87640482,Li√®pvre Route La Vancelle,li pvre route la vancelle
StopArea:OCE87640490,Li√®pvre Bois l'Abesse ZI,li pvre bois l abesse zi
StopArea:OCE87640623,Saint-C√©saire Mas du Cheylon,saint c saire mas du cheylon
StopArea:OCE87640631,Marvejols Place du Chayla,marvejols place du chayla
StopArea:OCE87640649,Chirac Ville,chirac ville
StopArea:OCE87640656,Balsi√®ges Arr√™t RN88,balsi ges arr t rn88
StopArea:OCE87640672,Les Salelles Embranchement RN 88,les salelles embranchement rn 88
StopArea:OCE87640680,Le Bruel Route Nationale 88,le bruel route nationale 88
StopArea:OCE87640698,Le Monastier Ville,le monastier ville
StopArea:OCE87640706,Campagne-sur-Aude Le Vieux Pont,campagne sur aude le vieux pont
StopArea:OCE87640714,Couiza Saint-Anne,couiza saint anne
StopArea:OCE87640789,Li√®pvre Centre,li pvre centre
StopArea:OCE87640797,Li√®pvre √âcoles,li pvre acoles
StopArea:OCE87640805,Rombach-le-Franc  Place des F√™tes,rombach le franc place des f tes
StopArea:OCE87640813,Rombach-le-Franc Scierie,rombach le franc scierie
StopArea:OCE87640821,Li√®pvre Rue du Vieux Moulin,li pvre rue du vieux moulin
StopArea:OCE87640839,Li√®pvre Rue Robert Guth,li pvre rue robert guth
StopArea:OCE87640847,Li√®pvre Musloch,li pvre musloch
StopArea:OCE87640854,Ste-Croix-aux-Mines Stimbach,ste croix aux mines stimbach
StopArea:OCE87640870,Ste-Croix Sq. G. de Gaulle,ste croix sq g de gaulle
StopArea:OCE87640912,Ste-Marie-aux-M S. Techniques,ste marie aux m s techniques
StopArea:OCE87640920,Ste-Marie-aux-Mines Espace Mus√©es,ste marie aux mines espace mus es
StopArea:OCE87640938,Ste-Marie-aux-Mines Mairie,ste marie aux mines mairie
StopArea:OCE87640946,Ste-Marie-aux-Ms P. de Gaulle,ste marie aux ms p de gaulle
StopArea:OCE87640953,Ste-Marie-aux-Mines Th√©√¢tre,ste marie aux mines th tre
StopArea:OCE87640961,Ste-Marie-aux-Mines Super U,ste marie aux mines super u
StopArea:OCE87640979,Raves (Ancienne Gare),raves ancienne gare
StopArea:OCE87640987,Remomeix Abri,remomeix abri
StopArea:OCE87640995,Sainte-Marguerite Village,sainte marguerite village
StopArea:OCE87641001,Montlu√ßon,montlu on
StopArea:OCE87641027,Ste Marguerite Cora,ste marguerite cora
StopArea:OCE87641043,Lapeyrouse,lapeyrouse
StopArea:OCE87641050,Louroux-de-Bouble,louroux de bouble
StopArea:OCE87641068,Bellenaves,bellenaves
StopArea:OCE87641076,Saint-Bonnet-de-Rochefort,saint bonnet de rochefort
StopArea:OCE87641191,La Ville Gozet,la ville gozet
StopArea:OCE87641217,Huriel,huriel
StopArea:OCE87641332,Saint-Di√© Rue d'Alsace,saint di rue d alsace
StopArea:OCE87641357,Vallon-en-Sully,vallon en sully
StopArea:OCE87641365,Magnette,magnette
StopArea:OCE87641373,Les Trillers,les trillers
StopArea:OCE87641415,Commentry,commentry
StopArea:OCE87641423,Volvic,volvic
StopArea:OCE87641449,Durtol - Nohanent,durtol nohanent
StopArea:OCE87642223,Saverne Lyc√©e Verne,saverne lyc e verne
StopArea:OCE87642249,Saverne Place des Dragons,saverne place des dragons
StopArea:OCE87642256,Saverne Haut Barr,saverne haut barr
StopArea:OCE87642264,Dossenheim Mairie,dossenheim mairie
StopArea:OCE87642272,Dossenheim Lotissement,dossenheim lotissement
StopArea:OCE87642280,Neuwiller Pharmacie,neuwiller pharmacie
StopArea:OCE87642298,Neuwiller Rue de Bouxwiller,neuwiller rue de bouxwiller
StopArea:OCE87642306,Bouxwiller Lyc√©e Schattenmann,bouxwiller lyc e schattenmann
StopArea:OCE87642314,Bouxwiller Centre,bouxwiller centre
StopArea:OCE87642330,Menchhoffen Abri,menchhoffen abri
StopArea:OCE87642348,Wimmenau D.919 - Rue de la Gare,wimmenau d 919 rue de la gare
StopArea:OCE87642355,Wingen-sur-Moder Mairie,wingen sur moder mairie
StopArea:OCE87642363,Rosteig Monument aux Morts,rosteig monument aux morts
StopArea:OCE87642371,Col de Puberg,col de puberg
StopArea:OCE87642389,Frohmuhl Lavoir,frohmuhl lavoir
StopArea:OCE87642801,Bitche Quartier Driant,bitche quartier driant
StopArea:OCE87643403,Cigoland,cigoland
StopArea:OCE87643411,Kintzheim Mairie,kintzheim mairie
StopArea:OCE87643429,Orschwiller Chapelle,orschwiller chapelle
StopArea:OCE87643437,Saint-Hippolyte H√¥tel Munsch,saint hippolyte h tel munsch
StopArea:OCE87643445,Saint-Hippolyte Parc Walter,saint hippolyte parc walter
StopArea:OCE87643452,Rorschwihr Mairie,rorschwihr mairie
StopArea:OCE87643460,Bergheim Porte haute,bergheim porte haute
StopArea:OCE87644104,Courcay Rouvre,courcay rouvre
StopArea:OCE87645002,Aurillac,aurillac
StopArea:OCE87645101,Ytrac,ytrac
StopArea:OCE87645135,Laroquebrou,laroquebrou
StopArea:OCE87645150,Lacapelle-Viescamp,lacapelle viescamp
StopArea:OCE87645168,Maurs,maurs
StopArea:OCE87645176,Pers,pers
StopArea:OCE87645184,Boisset,boisset
StopArea:OCE87645192,Le Rouget,le rouget
StopArea:OCE87645440,Vic-sur-C√®re,vic sur c re
StopArea:OCE87645473,Le Lioran,le lioran
StopArea:OCE87645481,Murat,murat
StopArea:OCE87645507,Neussargues,neussargues
StopArea:OCE87645705,Bort-les-Orgues,bort les orgues
StopArea:OCE87651802,Sisteron,sisteron
StopArea:OCE87654384,Lichtenberg √âglise,lichtenberg aglise
StopArea:OCE87654392,Lichtenberg Picardie,lichtenberg picardie
StopArea:OCE87654442,Reipertswiller Salle Polyvalente,reipertswiller salle polyvalente
StopArea:OCE87654467,Wimmenau Centre,wimmenau centre
StopArea:OCE87654475,Rouffach CHS,rouffach chs
StopArea:OCE87654541,Merxheim Pl. G√©n√©ral de Gaulle,merxheim pl g n ral de gaulle
StopArea:OCE87654558,Illfurth Croisement Gare-CD68,illfurth croisement gare cd68
StopArea:OCE87654574,Zillisheim Auberge Mohn,zillisheim auberge mohn
StopArea:OCE87654590,Stephansfeld H√¥pital,stephansfeld h pital
StopArea:OCE87654673,Brumath Mairie,brumath mairie
StopArea:OCE87658716,Schwindratzheim G√©n√©ral Leclerc,schwindratzheim g n ral leclerc
StopArea:OCE87658740,Wilwisheim Haute-Mont√©e,wilwisheim haute mont e
StopArea:OCE87658849,Pfaffenhoffen Mairie,pfaffenhoffen mairie
StopArea:OCE87658856,Adamswiller Lotissement la For√™t,adamswiller lotissement la for t
StopArea:OCE87658922,Adamswiller Mairie,adamswiller mairie
StopArea:OCE87658930,Bischheim Arr√™t CTS R. Gare,bischheim arr t cts r gare
StopArea:OCE87658948,Kilstett 13 Route Nationale,kilstett 13 route nationale
StopArea:OCE87659631,Bouverans Halte Routi√®re,bouverans halte routi re
StopArea:OCE87659649,Domblans Halte Routi√®re,domblans halte routi re
StopArea:OCE87659656,Buvilly Halte Routi√®re,buvilly halte routi re
StopArea:OCE87659664,Dompierre Halte Routi√®re,dompierre halte routi re
StopArea:OCE87659722,Voiteur Halte Routi√®re,voiteur halte routi re
StopArea:OCE87659730,Gambsheim Garage Peugeot,gambsheim garage peugeot
StopArea:OCE87659755,Hoerdt Maison de Retraite,hoerdt maison de retraite
StopArea:OCE87659763,Hoerdt Mairie,hoerdt mairie
StopArea:OCE87659771,Weyersheim Rue R√©publique,weyersheim rue r publique
StopArea:OCE87659789,Kurtzenhouse Mairie,kurtzenhouse mairie
StopArea:OCE87659797,Kurtzenhouse 71 Route Principale,kurtzenhouse 71 route principale
StopArea:OCE87659805,Bischwiller √âglise Catholique,bischwiller aglise catholique
StopArea:OCE87659813,Bischwiller Vestra,bischwiller vestra
StopArea:OCE87659821,Kaltenhouse Rue de Bischwiller,kaltenhouse rue de bischwiller
StopArea:OCE87659839,Marienthal Basilique Notre-Dame,marienthal basilique notre dame
StopArea:OCE87659847,Haguenau Statuette,haguenau statuette
StopArea:OCE87659854,Rixheim Arr√™t Sol√©a Barri√®res,rixheim arr t sol a barri res
StopArea:OCE87659862,Sierentz Centre,sierentz centre
StopArea:OCE87659870,Bartenheim Pharmacie,bartenheim pharmacie
StopArea:OCE87659888,Oderen La Poste,oderen la poste
StopArea:OCE87659896,Fellering √âglise,fellering aglise
StopArea:OCE87659904,Ranspach Ancienne Fonderie,ranspach ancienne fonderie
StopArea:OCE87659912,Saint-Amarin H√¥tel Le Cheval Blanc,saint amarin h tel le cheval blanc
StopArea:OCE87659920,Malmerspach Rond-point,malmerspach rond point
StopArea:OCE87659938,Moosch Mairie,moosch mairie
StopArea:OCE87659946,Willer-sur-Thur Mairie,willer sur thur mairie
StopArea:OCE87659953,Bitschwiller-l√®s-Thann Mairie,bitschwiller l s thann mairie
StopArea:OCE87659961,Thann La Poste,thann la poste
StopArea:OCE87659979,Vieux-Thann Parking de la Gare,vieux thann parking de la gare
StopArea:OCE87659987,Cernay √âglise,cernay aglise
StopArea:OCE87659995,Dornach Gare Dmc,dornach gare dmc
StopArea:OCE87660043,Walbourg S√©minaire,walbourg s minaire
StopArea:OCE87660050,Surbourg Rue Saint-Arbogast,surbourg rue saint arbogast
StopArea:OCE87660126,Schoenenbourg Centre,schoenenbourg centre
StopArea:OCE87660340,Ingolsheim Centre,ingolsheim centre
StopArea:OCE87660365,Riedseltz Arr√™t Chapelle,riedseltz arr t chapelle
StopArea:OCE87660373,Riedseltz Salle Polyvalente,riedseltz salle polyvalente
StopArea:OCE87660381,Wissembourg Altenstadt,wissembourg altenstadt
StopArea:OCE87660548,Mutzig Passage √† Niveau,mutzig passage niveau
StopArea:OCE87660571,Mutzig Porte Centre,mutzig porte centre
StopArea:OCE87660589,Gresswiller Abri,gresswiller abri
StopArea:OCE87660605,Lutzelhouse Abri √âglise,lutzelhouse abri aglise
StopArea:OCE87660688,Wisches √âglise,wisches aglise
StopArea:OCE87660795,Devant Fouday Abri RN 420,devant fouday abri rn 420
StopArea:OCE87660886,Bourg-Bruche √âglise,bourg bruche aglise
StopArea:OCE87660910,Obernai Passage √† Niveau,obernai passage niveau
StopArea:OCE87660936,Eichhoffen Carrefour Gare,eichhoffen carrefour gare
StopArea:OCE87660977,Epfig Croisement √âglise - RN,epfig croisement aglise rn
StopArea:OCE87665240,Colmar St-Joseph Rue du Val St-Gr√©goire,colmar st joseph rue du val st gr goire
StopArea:OCE87665265,Ingersheim Lyc√©e R. Turckheim,ingersheim lyc e r turckheim
StopArea:OCE87665331,Logelbach Hirn,logelbach hirn
StopArea:OCE87665356,Ingersheim Place du G√©n√©ral de Gaulle,ingersheim place du g n ral de gaulle
StopArea:OCE87665380,Turckheim Place de la R√©publique,turckheim place de la r publique
StopArea:OCE87665455,Walbach La Forge Abri D 417,walbach la forge abri d 417
StopArea:OCE87665463,Wihr-au-Val - Soultzbach  D417,wihr au val soultzbach d417
StopArea:OCE87665471,Gunsbach D417,gunsbach d417
StopArea:OCE87665489,Munster Inter. D417-Badischhof,munster inter d417 badischhof
StopArea:OCE87665505,Luttenbach Abri Route Principale,luttenbach abri route principale
StopArea:OCE87665513,Luttenbach Fronzell,luttenbach fronzell
StopArea:OCE87665562,Breitenbach Restaurant Breit's bar,breitenbach restaurant breit s bar
StopArea:OCE87665620,Muhlbach-sur-Munster Mairie,muhlbach sur munster mairie
StopArea:OCE87666099,Chamelet Centre,chamelet centre
StopArea:OCE87667980,Diou Ville Bus,diou ville bus
StopArea:OCE87668004,Villeneuve-sur-Allier Centre,villeneuve sur allier centre
StopArea:OCE87668095,Thiel-sur-Acolin abris-bus,thiel sur acolin abris bus
StopArea:OCE87668111,Montbeugny Centre,montbeugny centre
StopArea:OCE87668137,Philippsbourg Falkenstein,philippsbourg falkenstein
StopArea:OCE87668152,√âguelshardt Abri,aguelshardt abri
StopArea:OCE87668376,S√©verac d'Aveyron Embrachement le Massegros,s verac d aveyron embrachement le massegros
StopArea:OCE87668384,Verrieres Engayresque,verrieres engayresque
StopArea:OCE87668459,Auch All√©e Baylac,auch all e baylac
StopArea:OCE87671008,Tarbes,tarbes
StopArea:OCE87671016,Mont-de-Marsan,mont de marsan
StopArea:OCE87671123,Lannemezan,lannemezan
StopArea:OCE87671156,Capvern,capvern
StopArea:OCE87671172,Tournay,tournay
StopArea:OCE87671339,Lourdes,lourdes
StopArea:OCE87671362,Saint-P√©-de-Bigorre,saint p de bigorre
StopArea:OCE87671479,Arengosse,arengosse
StopArea:OCE87671487,Ygos,ygos
StopArea:OCE87671495,Saint-Martin-d'Oney,saint martin d oney
StopArea:OCE87672006,Pau,pau
StopArea:OCE87672113,Montaut B√©tharram,montaut b tharram
StopArea:OCE87672139,Coarraze - Nay,coarraze nay
StopArea:OCE87672162,Assat,assat
StopArea:OCE87672212,Artix,artix
StopArea:OCE87672253,Orthez,orthez
StopArea:OCE87672279,Puyo√¥,puyo
StopArea:OCE87672337,Peyrehorade,peyrehorade
StopArea:OCE87672386,Urt,urt
StopArea:OCE87672600,Croix du Prince,croix du prince
StopArea:OCE87672618,Gan,gan
StopArea:OCE87672634,Buzy en B√©arn,buzy en b arn
StopArea:OCE87672709,Ogeu-les-Bains,ogeu les bains
StopArea:OCE87672725,Oloron-Sainte-Marie,oloron sainte marie
StopArea:OCE87672741,Lurbe-Saint-Christau,lurbe saint christau
StopArea:OCE87672766,Sarrance,sarrance
StopArea:OCE87672774,Bedous,bedous
StopArea:OCE87673004,Bayonne,bayonne
StopArea:OCE87673095,Boucau,boucau
StopArea:OCE87673103,Morcenx,morcenx
StopArea:OCE87673202,Dax,dax
StopArea:OCE87673251,Saubusse,saubusse
StopArea:OCE87673269,Saint-Geours,saint geours
StopArea:OCE87673277,Saint-Vincent-de-Tyrosse,saint vincent de tyrosse
StopArea:OCE87673285,B√©nesse-Maremne,b nesse maremne
StopArea:OCE87673293,Labenne,labenne
StopArea:OCE87673319,Ondres,ondres
StopArea:OCE87673400,Biarritz,biarritz
StopArea:OCE87673459,Gu√©thary,gu thary
StopArea:OCE87673616,Villefranque,villefranque
StopArea:OCE87673624,Ustaritz-Jatxou,ustaritz jatxou
StopArea:OCE87673640,Halsou - Larressore,halsou larressore
StopArea:OCE87673657,Cambo-les-Bains,cambo les bains
StopArea:OCE87673665,Itxassou,itxassou
StopArea:OCE87673699,Bidarray Pont Noblia,bidarray pont noblia
StopArea:OCE87673707,Oss√®s - Saint-Martin-d'Arrossa,oss s saint martin d arrossa
StopArea:OCE87673723,Saint-Jean-Pied-de-Port,saint jean pied de port
StopArea:OCE87676833,Saint-√âloi √âglise,saint aloi aglise
StopArea:OCE87676874,Saint-L√©ger-des-Vignes Mairie,saint l ger des vignes mairie
StopArea:OCE87677005,Hendaye,hendaye
StopArea:OCE87677047,Brion - Laisy Mairie,brion laisy mairie
StopArea:OCE87677096,Changy Tourny Monument,changy tourny monument
StopArea:OCE87677104,Les Deux Jumeaux,les deux jumeaux
StopArea:OCE87677120,Saint-Jean-de-Luz - Ciboure,saint jean de luz ciboure
StopArea:OCE87677138,Chauffailles Gambetta,chauffailles gambetta
StopArea:OCE87677195,Voutenay-sur-Cure Place Mairie,voutenay sur cure place mairie
StopArea:OCE87677245,Lucy-sur-Cure D606,lucy sur cure d606
StopArea:OCE87677252,Accolay Le Pont,accolay le pont
StopArea:OCE87677948,Mauvezin Place de la Halle,mauvezin place de la halle
StopArea:OCE87677955,Solomiac Halle,solomiac halle
StopArea:OCE87678466,Uttwiller Croisement,uttwiller croisement
StopArea:OCE87678474,Gu√©mar Rond-point Sony,gu mar rond point sony
StopArea:OCE87678482,Sainte-Croix-aux-Mines Centre,sainte croix aux mines centre
StopArea:OCE87678490,Li√®pvre Pharmacie,li pvre pharmacie
StopArea:OCE87678524,Niederbronn Hotel de Ville,niederbronn hotel de ville
StopArea:OCE87678680,Haguenau Arr√™t Ritmo Moulin Neuf,haguenau arr t ritmo moulin neuf
StopArea:OCE87678698,Schweighouse √âgl. protestante,schweighouse agl protestante
StopArea:OCE87678706,Schweighouse Mar√©chal Leclerc,schweighouse mar chal leclerc
StopArea:OCE87678714,Neubourg √âglise,neubourg aglise
StopArea:OCE87678730,Pfaffenhoffen Pl. R√©publique,pfaffenhoffen pl r publique
StopArea:OCE87680504,Les Trilliers Pn Carrefour,les trilliers pn carrefour
StopArea:OCE87680579,Royat T2C Beausite,royat t2c beausite
StopArea:OCE87680694,Chamalieres Place Parking M.,chamalieres place parking m
StopArea:OCE87680702,Clermont Universit√© T2C,clermont universit t2c
StopArea:OCE87680710,Durtol T2C square Ch Sabourin,durtol t2c square ch sabourin
StopArea:OCE87680728,Fix Saint-Geneys Rn102 Bourg,fix saint geneys rn102 bourg
StopArea:OCE87680736,Lavoute Arr√™t CG,lavoute arr t cg
StopArea:OCE87682302,Montereau,montereau
StopArea:OCE87682450,Champagne-sur-Seine,champagne sur seine
StopArea:OCE87683003,Sens,sens
StopArea:OCE87683102,Villeneuve-la-Guyard,villeneuve la guyard
StopArea:OCE87683128,Champigny,champigny
StopArea:OCE87683136,Pont-sur-Yonne,pont sur yonne
StopArea:OCE87683201,√âtigny - V√©ron,atigny v ron
StopArea:OCE87683219,Villeneuve-sur-Yonne,villeneuve sur yonne
StopArea:OCE87683227,Saint-Julien-du-Sault,saint julien du sault
StopArea:OCE87683243,Joigny,joigny
StopArea:OCE87683268,Laroche - Migennes,laroche migennes
StopArea:OCE87683318,Saint-Florentin - Vergigny,saint florentin vergigny
StopArea:OCE87683334,Saint-Florentin-Ville,saint florentin ville
StopArea:OCE87683532,Chemilly - Appoigny,chemilly appoigny
StopArea:OCE87683557,Mon√©teau - Gurgy,mon teau gurgy
StopArea:OCE87683573,Auxerre Saint-Gervais,auxerre saint gervais
StopArea:OCE87683615,Champs - Saint-Bris,champs saint bris
StopArea:OCE87683631,Vincelles,vincelles
StopArea:OCE87683649,Cravant - Bazarnes,cravant bazarnes
StopArea:OCE87683664,Vermenton,vermenton
StopArea:OCE87683680,Arcy-sur-Cure,arcy sur cure
StopArea:OCE87683722,Sermizelles - V√©zelay,sermizelles v zelay
StopArea:OCE87683789,Avallon,avallon
StopArea:OCE87683847,Mailly-la-Ville,mailly la ville
StopArea:OCE87684001,Montargis,montargis
StopArea:OCE87684126,Nemours - Saint-Pierre,nemours saint pierre
StopArea:OCE87684274,Nogent-sur-Vernisson,nogent sur vernisson
StopArea:OCE87684290,Gien,gien
StopArea:OCE87685776,R√©milly Le Charnay Pont Bulvin,r milly le charnay pont bulvin
StopArea:OCE87685784,Les Tavins,les tavins
StopArea:OCE87686006,Paris Gare de Lyon Hall 1 - 2,paris gare de lyon hall 1 2
StopArea:OCE87686048,Serre-Chevalier le Monetier l'√âglise,serre chevalier le monetier l aglise
StopArea:OCE87686360,Lemberg Grand-Rue,lemberg grand rue
StopArea:OCE87686667,Paris Bercy Bourg. Pays d'Auv.,paris bercy bourg pays d auv
StopArea:OCE87687400,Coubladour Rond-Point,coubladour rond point
StopArea:OCE87688887,Montpellier Sud de France,montpellier sud de france
StopArea:OCE87690396,Montfey,montfey
StopArea:OCE87691394,La Marche,la marche
StopArea:OCE87691436,Garchizy,garchizy
StopArea:OCE87691469,Vauzelles,vauzelles
StopArea:OCE87691600,Les Perri√®res,les perri res
StopArea:OCE87691675,Verneuil,verneuil
StopArea:OCE87691725,Avr√©e,avr e
StopArea:OCE87691949,Bidos,bidos
StopArea:OCE87693390,Egletons-ville,egletons ville
StopArea:OCE87694000,Le Creusot,le creusot
StopArea:OCE87694109,Le Creusot-TGV,le creusot tgv
StopArea:OCE87694141,√âtang-sur-Arroux,atang sur arroux
StopArea:OCE87694158,Mesvres,mesvres
StopArea:OCE87694166,Broye,broye
StopArea:OCE87694174,Saint-Symphorien-de-Marmagne,saint symphorien de marmagne
StopArea:OCE87694182,Marmagne sous Creusot,marmagne sous creusot
StopArea:OCE87694257,Parsac Centre,parsac centre
StopArea:OCE87694307,Montchanin,montchanin
StopArea:OCE87694364,Saint-L√©ger-sur-Dheune,saint l ger sur dheune
StopArea:OCE87694398,Cheilly-l√®s-Maranges,cheilly l s maranges
StopArea:OCE87694570,Autun,autun
StopArea:OCE87694596,Brion - Laizy,brion laizy
StopArea:OCE87694612,Blanzy,blanzy
StopArea:OCE87694620,Montceau-les-Mines,montceau les mines
StopArea:OCE87694638,Galuzot,galuzot
StopArea:OCE87694646,Ciry-le-Noble,ciry le noble
StopArea:OCE87694653,G√©nelard,g nelard
StopArea:OCE87694687,Paray-le-Monial,paray le monial
StopArea:OCE87694695,Digoin,digoin
StopArea:OCE87694729,Dyo,dyo
StopArea:OCE87694737,La Clayette - Baudemont,la clayette baudemont
StopArea:OCE87694778,Chauffailles,chauffailles
StopArea:OCE87694851,Saint-Agnan,saint agnan
StopArea:OCE87694869,Gilly-sur-Loire,gilly sur loire
StopArea:OCE87694885,Charolles,charolles
StopArea:OCE87695957,Aiguebelette-Centre,aiguebelette centre
StopArea:OCE87695965,Ambronay-Priay RD 1075,ambronay priay rd 1075
StopArea:OCE87695973,Bellignat - Lyc√©e-Arbez-Carme,bellignat lyc e arbez carme
StopArea:OCE87695999,Bourg-en-Bresse Archives,bourg en bresse archives
StopArea:OCE87696005,Nevers,nevers
StopArea:OCE87696013,Bourg-en-Bresse Gare Routi√®re,bourg en bresse gare routi re
StopArea:OCE87696088,Briare,briare
StopArea:OCE87696146,Cosne-sur-Loire,cosne sur loire
StopArea:OCE87696161,Tracy Sancerre,tracy sancerre
StopArea:OCE87696179,Pouilly-sur-Loire,pouilly sur loire
StopArea:OCE87696187,Mesves - Bulcy,mesves bulcy
StopArea:OCE87696195,La Charit√©-sur-Loire,la charit sur loire
StopArea:OCE87696203,Tronsanges,tronsanges
StopArea:OCE87696211,Pougues-les-Eaux,pougues les eaux
StopArea:OCE87696229,Fourchambault,fourchambault
StopArea:OCE87696260,Saincaize,saincaize
StopArea:OCE87696294,Saint-Pierre-le-Mo√ªtier,saint pierre le mo tier
StopArea:OCE87696302,Chantenay-Saint-Imbert,chantenay saint imbert
StopArea:OCE87696310,Villeneuve-sur-Allier,villeneuve sur allier
StopArea:OCE87696328,Moulins sur Allier,moulins sur allier
StopArea:OCE87696336,Bessay,bessay
StopArea:OCE87696351,Varennes-sur-Allier,varennes sur allier
StopArea:OCE87696385,Les Abrets - Rue-Italie,les abrets rue italie
StopArea:OCE87696427,Dompierre Sept Fons,dompierre sept fons
StopArea:OCE87696443,Moutiers-Lyc√©e,moutiers lyc e
StopArea:OCE87696450,Imphy,imphy
StopArea:OCE87696468,B√©ard,b ard
StopArea:OCE87696484,Decize,decize
StopArea:OCE87696492,Cercy-la-Tour,cercy la tour
StopArea:OCE87696500,Saint-Martin-du-Mont Le Farget,saint martin du mont le farget
StopArea:OCE87696518,Fours,fours
StopArea:OCE87696534,Luzy,luzy
StopArea:OCE87696617,Corbigny,corbigny
StopArea:OCE87696633,Flez-Cuzy - Tannay,flez cuzy tannay
StopArea:OCE87696658,Saint-Paul Coll√®ge,saint paul coll ge
StopArea:OCE87696807,Clamecy,clamecy
StopArea:OCE87696831,Coulanges-sur-Yonne,coulanges sur yonne
StopArea:OCE87696856,Ch√¢tel-Censoir,ch tel censoir
StopArea:OCE87697003,Albigny-Neuville-Arret-TCL-Gare,albigny neuville arret tcl gare
StopArea:OCE87697011,Anse-Monument,anse monument
StopArea:OCE87697029,Collonges Fontaines Arret Tcl Gare,collonges fontaines arret tcl gare
StopArea:OCE87697037,Couzon-Au-Mont-D'Or-Arret-Tcl-Gare,couzon au mont d or arret tcl gare
StopArea:OCE87697045,Lyon-Vaise-Gare-Routi√®re,lyon vaise gare routi re
StopArea:OCE87697128,Lyon-Part-Dieu Gare Routi√®re,lyon part dieu gare routi re
StopArea:OCE87697136,Lyon-Perrache Gare Routi√®re,lyon perrache gare routi re
StopArea:OCE87697144,Argentine-La-Combe,argentine la combe
StopArea:OCE87697151,Argentine-Gemelly-ou-Stade,argentine gemelly ou stade
StopArea:OCE87697185,Civrieux-d'Azergues D 385,civrieux d azergues d 385
StopArea:OCE87697193,Clelles-Mairie,clelles mairie
StopArea:OCE87697227,Lissieu-Le Bois Dieu RD306,lissieu le bois dieu rd306
StopArea:OCE87697466,Grenoble-Eug√®ne-Chavant,grenoble eug ne chavant
StopArea:OCE87697474,Grenoble-Victor-Hugo,grenoble victor hugo
StopArea:OCE87697482,Grenoble-Champollion,grenoble champollion
StopArea:OCE87697490,Grenoble Europole,grenoble europole
StopArea:OCE87697508,La-Bridoire-Abris-Bus-le-Haut,la bridoire abris bus le haut
StopArea:OCE87697516,Lus-la-Croix-Haute RD 1075,lus la croix haute rd 1075
StopArea:OCE87697524,Monestier-de-Clermont Centre,monestier de clermont centre
StopArea:OCE87697672,Bourg-en-Bresse Charit√©,bourg en bresse charit
StopArea:OCE87697698,La Chambre,la chambre
StopArea:OCE87697706,Polliat-Mairie,polliat mairie
StopArea:OCE87697714,Pontamafrey,pontamafrey
StopArea:OCE87697722,Saint-√âtienne-de-Cuines,saint atienne de cuines
StopArea:OCE87697821,Cintegabelle-Rond-Point,cintegabelle rond point
StopArea:OCE87697839,Perl Gare Routi√®re,perl gare routi re
StopArea:OCE87698274,Ecully Arr√™t TCL Demi-Lune Vauboin,ecully arr t tcl demi lune vauboin
StopArea:OCE87698282,Fleurieux RN7,fleurieux rn7
StopArea:OCE87698290,Grandris-Centre,grandris centre
StopArea:OCE87698308,Gr√©sy-sur-Aix Le Chevret Ond√©a,gr sy sur aix le chevret ond a
StopArea:OCE87698316,La Tour-de-Salvagny Hippodrome,la tour de salvagny hippodrome
StopArea:OCE87698324,La Tour-de-Salvagny Centre,la tour de salvagny centre
StopArea:OCE87698332,Lyon-Saint-Paul Quai de Bondy,lyon saint paul quai de bondy
StopArea:OCE87698340,Lyon-Saint-Paul La Feuill√©e,lyon saint paul la feuill e
StopArea:OCE87698381,Alai Arr√™t TCL,alai arr t tcl
StopArea:OCE87698415,Beynost RD 1084 Gare,beynost rd 1084 gare
StopArea:OCE87698423,Chambery-Jacob-Bellecombette,chambery jacob bellecombette
StopArea:OCE87698449,Communay La Guicharde,communay la guicharde
StopArea:OCE87698456,Communay Les Bonni√®res,communay les bonni res
StopArea:OCE87698464,Communay Les Brosses,communay les brosses
StopArea:OCE87698506,Feyzin-TCL-Gare,feyzin tcl gare
StopArea:OCE87698514,Flumet-Office-de-Tourisme,flumet office de tourisme
StopArea:OCE87698530,Le Bourget-du-Lac-STAC,le bourget du lac stac
StopArea:OCE87698563,Meg√®ve-Autogare,meg ve autogare
StopArea:OCE87698571,Miribel-RD1084-√âlys√©e,miribel rd1084 alys e
StopArea:OCE87698613,Praz-sur-Arly Office de Tourisme,praz sur arly office de tourisme
StopArea:OCE87698621,Privas-Cours-du-Palais,privas cours du palais
StopArea:OCE87698639,Roanne-Gare-Routi√®re,roanne gare routi re
StopArea:OCE87698647,Romans-Gare-Routi√®re,romans gare routi re
StopArea:OCE87698662,St-Etienne-Ch√¢tcrx. G Routi√®re,st etienne ch tcrx g routi re
StopArea:OCE87698696,St-Maurice-Beynost D1084 Cte,st maurice beynost d1084 cte
StopArea:OCE87698712,Saint-Pierre-de-Chandieu Charmy,saint pierre de chandieu charmy
StopArea:OCE87698738,Tassin-le-Baraillon,tassin le baraillon
StopArea:OCE87698746,Ternay Boucherattes,ternay boucherattes
StopArea:OCE87698753,Ternay Centre,ternay centre
StopArea:OCE87698761,Ternay Chassagne Grandes Combes,ternay chassagne grandes combes
StopArea:OCE87698779,Ternay Chemin de la Gare,ternay chemin de la gare
StopArea:OCE87698787,Ternay Croix du Morze,ternay croix du morze
StopArea:OCE87698795,Ugine-Place-du-Val-d'Arly,ugine place du val d arly
StopArea:OCE87698803,Vienne-Gare-Routi√®re,vienne gare routi re
StopArea:OCE87699009,La Chapelle-sous-Dun,la chapelle sous dun
StopArea:OCE87699223,Base A√©rienne,base a rienne
StopArea:OCE87699850,Malbuisson,malbuisson
StopArea:OCE87700146,Danjoutin,danjoutin
StopArea:OCE87700153,Joncherey,joncherey
StopArea:OCE87700906,Tantonville Rue Louis Pasteur,tantonville rue louis pasteur
StopArea:OCE87700914,Praye-sous-Vaud√©mont PN,praye sous vaud mont pn
StopArea:OCE87700930,Diarville Place Raymond Midon,diarville place raymond midon
StopArea:OCE87700955,Mattaincourt la Poste,mattaincourt la poste
StopArea:OCE87700963,Hymont Mairie,hymont mairie
StopArea:OCE87700971,Har√©ville sous Monfort Centre,har ville sous monfort centre
StopArea:OCE87700989,Martigny-les-Bains Thi√©baut,martigny les bains thi baut
StopArea:OCE87700997,Lamarche Centre,lamarche centre
StopArea:OCE87701102,Ceintrey Groupe Scolaire,ceintrey groupe scolaire
StopArea:OCE87701532,Tr√©laz√©,tr laz
StopArea:OCE87702068,Zellenberg Route du Vin,zellenberg route du vin
StopArea:OCE87702076,Riquewihr Poste,riquewihr poste
StopArea:OCE87702084,Bouxwiller Clos Des Seigneurs,bouxwiller clos des seigneurs
StopArea:OCE87703421,R√©melfing Centre,r melfing centre
StopArea:OCE87703439,Sarreinsming Pont,sarreinsming pont
StopArea:OCE87703447,Zetting Salle des F√™tes,zetting salle des f tes
StopArea:OCE87703454,Wittring Pont,wittring pont
StopArea:OCE87703462,Sarrewerden √âglise,sarrewerden aglise
StopArea:OCE87703470,Bischtroff-sur-Sarre Mairie,bischtroff sur sarre mairie
StopArea:OCE87703488,Wolfskirchen Rue du Moulin,wolfskirchen rue du moulin
StopArea:OCE87703496,Diedendorf Rond-Point,diedendorf rond point
StopArea:OCE87703553,Niederstinzel Principale,niederstinzel principale
StopArea:OCE87703561,Berthelming Rue Principale,berthelming rue principale
StopArea:OCE87703579,Bettborn Grand Rue,bettborn grand rue
StopArea:OCE87703587,Saint-Jean-de-Bassel √âglise,saint jean de bassel aglise
StopArea:OCE87703595,Gosselming Mairie,gosselming mairie
StopArea:OCE87703629,Oberstinzel Rue Principale,oberstinzel rue principale
StopArea:OCE87703678,Dolving Rue de Sarrebourg,dolving rue de sarrebourg
StopArea:OCE87703686,Sarraltroff Rue de F√©n√©trange,sarraltroff rue de f n trange
StopArea:OCE87703694,Koenigsmacker Metrich √âcole,koenigsmacker metrich acole
StopArea:OCE87703744,Sarrebourg H√¥pital,sarrebourg h pital
StopArea:OCE87703769,Basse-Ham Stade,basse ham stade
StopArea:OCE87703975,N√Æmes Pont du Gard,n mes pont du gard
StopArea:OCE87707588,Sarraltroff Rue de la For√™t,sarraltroff rue de la for t
StopArea:OCE87710731,Ecole-Valentin,ecole valentin
StopArea:OCE87711226,Scherwiller Rue de la Gare,scherwiller rue de la gare
StopArea:OCE87711713,Juvancourt,juvancourt
StopArea:OCE87712026,Rully,rully
StopArea:OCE87712182,Neuilly-l√®s-Dijon,neuilly l s dijon
StopArea:OCE87712265,Bretigny - Norges,bretigny norges
StopArea:OCE87712323,Lantenay,lantenay
StopArea:OCE87712331,Velars,velars
StopArea:OCE87712604,Ouges,ouges
StopArea:OCE87712620,Longecourt,longecourt
StopArea:OCE87712679,Chaugey,chaugey
StopArea:OCE87713008,Dijon Porte Neuve,dijon porte neuve
StopArea:OCE87713040,Dijon,dijon
StopArea:OCE87713065,M√¢lain,m lain
StopArea:OCE87713073,Blaisy-Bas,blaisy bas
StopArea:OCE87713081,Verrey,verrey
StopArea:OCE87713099,Thenissey,thenissey
StopArea:OCE87713115,Les Laumes - Al√©sia,les laumes al sia
StopArea:OCE87713131,Montbard,montbard
StopArea:OCE87713156,Nuits sous Ravi√®res,nuits sous ravi res
StopArea:OCE87713198,Tonnerre,tonnerre
StopArea:OCE87713313,Genlis,genlis
StopArea:OCE87713321,Collonges,collonges
StopArea:OCE87713339,Villers-les-Pots,villers les pots
StopArea:OCE87713347,Auxonne,auxonne
StopArea:OCE87713412,Dole,dole
StopArea:OCE87713503,Gevrey-Chambertin,gevrey chambertin
StopArea:OCE87713511,Vougeot - Gilly-l√®s-C√Æteaux,vougeot gilly l s c teaux
StopArea:OCE87713529,Nuits-Saint-Georges,nuits saint georges
StopArea:OCE87713537,Corgoloin,corgoloin
StopArea:OCE87713545,Beaune,beaune
StopArea:OCE87713560,Meursault,meursault
StopArea:OCE87713578,Chagny,chagny
StopArea:OCE87713586,Fontaines - Mercurey,fontaines mercurey
StopArea:OCE87713594,Santenay les Bains,santenay les bains
StopArea:OCE87713628,Saulon,saulon
StopArea:OCE87713636,Aiserey,aiserey
StopArea:OCE87713644,Brazey-en-Plaine,brazey en plaine
StopArea:OCE87713651,Saint-Jean-de-Losne,saint jean de losne
StopArea:OCE87713669,Pagny,pagny
StopArea:OCE87713677,Seurre,seurre
StopArea:OCE87713685,Navilly,navilly
StopArea:OCE87713693,Saint-Bonnet-en-Bresse,saint bonnet en bresse
StopArea:OCE87713701,Mervans,mervans
StopArea:OCE87713735,Louhans,louhans
StopArea:OCE87713826,Ruffey,ruffey
StopArea:OCE87713834,Saint-Julien - Cl√©nay,saint julien cl nay
StopArea:OCE87713842,Gemeaux,gemeaux
StopArea:OCE87713859,Is-sur-Tille,is sur tille
StopArea:OCE87714162,Damblain √âglise,damblain aglise
StopArea:OCE87714204,Saxon-Sion Basilique,saxon sion basilique
StopArea:OCE87714378,Ars-sur-Moselle TIM R√©publique,ars sur moselle tim r publique
StopArea:OCE87714998,R√©moncourt Route Principale,r moncourt route principale
StopArea:OCE87715003,Pontarlier,pontarlier
StopArea:OCE87715102,Andelot,andelot
StopArea:OCE87715136,Frasne,frasne
StopArea:OCE87715144,La Rivi√®re,la rivi re
StopArea:OCE87715151,Sainte-Colombe,sainte colombe
StopArea:OCE87715169,Les Granges-Narboz,les granges narboz
StopArea:OCE87715193,Bonnevaux,bonnevaux
StopArea:OCE87715201,Vaux-et-Chantegrue,vaux et chantegrue
StopArea:OCE87715219,Labergement-Sainte-Marie,labergement sainte marie
StopArea:OCE87715227,Les Longevilles Rochejean,les longevilles rochejean
StopArea:OCE87715235,Les Granges-Sainte-Marie,les granges sainte marie
StopArea:OCE87715250,Saint-Antoine (Doubs),saint antoine doubs
StopArea:OCE87715268,M√©tabief,m tabief
StopArea:OCE87715326,Champagnole,champagnole
StopArea:OCE87715383,La Chaux-des-Crotenay,la chaux des crotenay
StopArea:OCE87715391,La Chaumusse - Fort-du-Plasne,la chaumusse fort du plasne
StopArea:OCE87715417,Saint-Laurent-en-Grandvaux,saint laurent en grandvaux
StopArea:OCE87715433,Morbier,morbier
StopArea:OCE87715441,Morez,morez
StopArea:OCE87715516,Les H√¥pitaux-Neufs,les h pitaux neufs
StopArea:OCE87715524,Jougne,jougne
StopArea:OCE87715821,Mirecourt H√¥pital,mirecourt h pital
StopArea:OCE87716449,Saint-L√©onard Centre,saint l onard centre
StopArea:OCE87716456,Biffontaine Mairie,biffontaine mairie
StopArea:OCE87716472,L√©panges-Vologn R. Poste,l panges vologn r poste
StopArea:OCE87716696,Corcieux le Conti,corcieux le conti
StopArea:OCE87716811,La Houssi√®re Van√©mont Centre,la houssi re van mont centre
StopArea:OCE87716829,Laveline-devant-Bruy√®res Maison pour Tous,laveline devant bruy res maison pour tous
StopArea:OCE87716910,Morez Lyc√©e,morez lyc e
StopArea:OCE87717090,Ceintrey Eglise,ceintrey eglise
StopArea:OCE87717108,V√©zelise Beauregard,v zelise beauregard
StopArea:OCE87717389,Guilberville-le Saussey,guilberville le saussey
StopArea:OCE87717629,Rennes Beaulieu Chimie,rennes beaulieu chimie
StopArea:OCE87717751,Herbitzheim Mairie,herbitzheim mairie
StopArea:OCE87717769,Herbitzheim Msp,herbitzheim msp
StopArea:OCE87718007,Besan√ßon Viotte,besan on viotte
StopArea:OCE87718015,Besan√ßon Mouill√®re,besan on mouill re
StopArea:OCE87718106,Montferrand - Thoraise,montferrand thoraise
StopArea:OCE87718114,Torpes - Boussi√®res,torpes boussi res
StopArea:OCE87718122,Byans,byans
StopArea:OCE87718130,Liesle,liesle
StopArea:OCE87718155,Arbois,arbois
StopArea:OCE87718189,Poligny,poligny
StopArea:OCE87718197,Saint-Lothain,saint lothain
StopArea:OCE87718205,Passenans,passenans
StopArea:OCE87718213,Domblans - Voiteur,domblans voiteur
StopArea:OCE87718221,Montain-Lavigny,montain lavigny
StopArea:OCE87718239,Lons-le-Saunier,lons le saunier
StopArea:OCE87718270,Cousance,cousance
StopArea:OCE87718296,Saint-Amour,saint amour
StopArea:OCE87718304,Franois,franois
StopArea:OCE87718312,Dannemarie - Velesmes,dannemarie velesmes
StopArea:OCE87718320,Saint-Vit,saint vit
StopArea:OCE87718338,Ranchot,ranchot
StopArea:OCE87718361,Orchamps,orchamps
StopArea:OCE87718403,Roche-lez-Beaupr√©,roche lez beaupr
StopArea:OCE87718411,Novillars,novillars
StopArea:OCE87718429,Deluz,deluz
StopArea:OCE87718437,Laissey,laissey
StopArea:OCE87718460,Baume-les-Dames,baume les dames
StopArea:OCE87718502,Sa√¥ne,sa ne
StopArea:OCE87718510,Mamirolle,mamirolle
StopArea:OCE87718528,L'H√¥pital-du-Grosbois,l h pital du grosbois
StopArea:OCE87718536,√âtalans,atalans
StopArea:OCE87718544,Le Valdahon,le valdahon
StopArea:OCE87718551,Avoudrey,avoudrey
StopArea:OCE87718577,Gilley,gilley
StopArea:OCE87718601,Le Valdahon Camp Militaire,le valdahon camp militaire
StopArea:OCE87718619,Morteau,morteau
StopArea:OCE87718833,Mouchard,mouchard
StopArea:OCE87718841,Arc-et-Senans,arc et senans
StopArea:OCE87718866,Montbarrey,montbarrey
StopArea:OCE87721001,Lyon Vaise,lyon vaise
StopArea:OCE87721035,Amplepuis,amplepuis
StopArea:OCE87721043,Saint-Victor - Thizy,saint victor thizy
StopArea:OCE87721050,R√©gny,r gny
StopArea:OCE87721159,Lyon Saint-Paul,lyon saint paul
StopArea:OCE87721175,Lyon Gorge de Loup,lyon gorge de loup
StopArea:OCE87721225,Collonges - Fontaines,collonges fontaines
StopArea:OCE87721241,Couzon-au-Mont-d'Or,couzon au mont d or
StopArea:OCE87721266,Albigny - Neuville,albigny neuville
StopArea:OCE87721282,Saint-Germain-au-Mont-d'Or,saint germain au mont d or
StopArea:OCE87721290,Quincieux,quincieux
StopArea:OCE87721324,Anse,anse
StopArea:OCE87721332,Villefranche-sur-Sa√¥ne,villefranche sur sa ne
StopArea:OCE87721340,Saint-Georges-de-Reneins,saint georges de reneins
StopArea:OCE87721357,Belleville sur S√¢one,belleville sur s one
StopArea:OCE87721415,Chazay - Marcilly,chazay marcilly
StopArea:OCE87721423,Lozanne,lozanne
StopArea:OCE87721431,L'Arbresle,l arbresle
StopArea:OCE87721449,Dardilly - Le Jubin,dardilly le jubin
StopArea:OCE87721456,Saint-Romain-de-Popey,saint romain de popey
StopArea:OCE87721464,Pontcharra - Saint-Forgeux,pontcharra saint forgeux
StopArea:OCE87721472,Tarare,tarare
StopArea:OCE87721480,Dardilly les Mouilles,dardilly les mouilles
StopArea:OCE87721506,√âcully la Demi-Lune,acully la demi lune
StopArea:OCE87721514,Tassin,tassin
StopArea:OCE87721522,Le M√©ridien La Ferri√®re,le m ridien la ferri re
StopArea:OCE87721530,Charbonni√®res-les-Bains,charbonni res les bains
StopArea:OCE87721548,La Tour-de-Salvagny,la tour de salvagny
StopArea:OCE87721555,Lentilly,lentilly
StopArea:OCE87721563,Fleurieux-sur-l'Arbresle,fleurieux sur l arbresle
StopArea:OCE87721605,Sain-Bel,sain bel
StopArea:OCE87721696,Jumeaux,jumeaux
StopArea:OCE87721704,Les Flach√®res,les flach res
StopArea:OCE87721738,Dommartin - Lissieu,dommartin lissieu
StopArea:OCE87721746,Civrieux-d'Azergues,civrieux d azergues
StopArea:OCE87721753,Ch√¢tillon d'Azergues,ch tillon d azergues
StopArea:OCE87721761,Chessy,chessy
StopArea:OCE87721779,Le Breuil (Rh√¥ne),le breuil rh ne
StopArea:OCE87721787,Bois-d'Oingt - L√©gny,bois d oingt l gny
StopArea:OCE87721811,Ternand,ternand
StopArea:OCE87721829,Chamelet,chamelet
StopArea:OCE87721845,Chambost-Alli√®res,chambost alli res
StopArea:OCE87721852,Grandris La Folleti√®re,grandris la folleti re
StopArea:OCE87721860,Lamure-sur-Azergues,lamure sur azergues
StopArea:OCE87721878,Saint-Nizier-d'Azergues,saint nizier d azergues
StopArea:OCE87721894,Poule,poule
StopArea:OCE87722025,Lyon Perrache,lyon perrache
StopArea:OCE87722207,Oullins,oullins
StopArea:OCE87722231,Pierre-B√©nite,pierre b nite
StopArea:OCE87722249,Irigny - Yvours,irigny yvours
StopArea:OCE87722264,Vernaison,vernaison
StopArea:OCE87722298,Grigny le Sablon,grigny le sablon
StopArea:OCE87722405,Givors Ville,givors ville
StopArea:OCE87722439,Givors Canal,givors canal
StopArea:OCE87722538,Feyzin,feyzin
StopArea:OCE87722546,S√©r√©zin,s r zin
StopArea:OCE87722561,Chasse-sur-Rh√¥ne,chasse sur rh ne
StopArea:OCE87722579,Estressin,estressin
StopArea:OCE87722587,Vienne,vienne
StopArea:OCE87722652,Saint-Clair - Les Roches,saint clair les roches
StopArea:OCE87722678,Le P√©age-de-Roussillon,le p age de roussillon
StopArea:OCE87722702,Francheville,francheville
StopArea:OCE87722710,Chaponost,chaponost
StopArea:OCE87722728,Brignais,brignais
StopArea:OCE87722744,Ala√Ø,ala
StopArea:OCE87723197,Lyon Part Dieu,lyon part dieu
StopArea:OCE87723320,V√©nissieux,v nissieux
StopArea:OCE87723353,Saint-Priest,saint priest
StopArea:OCE87723361,Saint-Pierre-de-Chandieu Ronin,saint pierre de chandieu ronin
StopArea:OCE87723387,Saint-Quentin-Fallavier,saint quentin fallavier
StopArea:OCE87723395,La Verpilli√®re,la verpilli re
StopArea:OCE87723429,Bourgoin-Jallieu,bourgoin jallieu
StopArea:OCE87723452,Cessieu,cessieu
StopArea:OCE87723478,La Tour-du-Pin,la tour du pin
StopArea:OCE87723494,Saint-Andr√©-le-Gaz,saint andr le gaz
StopArea:OCE87723502,Cr√©pieux la Pape,cr pieux la pape
StopArea:OCE87723528,Miribel,miribel
StopArea:OCE87723536,Saint-Maurice-de-Beynost,saint maurice de beynost
StopArea:OCE87723544,Beynost,beynost
StopArea:OCE87723569,Montluel,montluel
StopArea:OCE87723577,La Valbonne,la valbonne
StopArea:OCE87723585,Meximieux - P√©rouges,meximieux p rouges
StopArea:OCE87723700,Sathonay - Rillieux,sathonay rillieux
StopArea:OCE87723718,Les √âchets,les achets
StopArea:OCE87723726,Mionnay,mionnay
StopArea:OCE87723734,Saint-Andr√©-de-Corcy,saint andr de corcy
StopArea:OCE87723742,Saint-Marcel en Dombes,saint marcel en dombes
StopArea:OCE87723759,Villars-les-Dombes,villars les dombes
StopArea:OCE87723767,Marlieux - Ch√¢tillon,marlieux ch tillon
StopArea:OCE87723783,Saint-Paul-de-Varax,saint paul de varax
StopArea:OCE87723791,Servas - Lent,servas lent
StopArea:OCE87725002,Chalon-sur-Sa√¥ne,chalon sur sa ne
StopArea:OCE87725168,St Pierre Chandieu C.Cassier,st pierre chandieu c cassier
StopArea:OCE87725192,ST PIERRE C. ZI porte Dauphin√©,st pierre c zi porte dauphin
StopArea:OCE87725309,Toussieu la C√¥te,toussieu la c te
StopArea:OCE87725416,Toussieu Eglise,toussieu eglise
StopArea:OCE87725473,Boulazac Isle Manoire,boulazac isle manoire
StopArea:OCE87725614,Sennecey-le-Grand,sennecey le grand
StopArea:OCE87725622,Tournus,tournus
StopArea:OCE87725663,Fleurville - Pont-de-Vaux,fleurville pont de vaux
StopArea:OCE87725671,Senozan,senozan
StopArea:OCE87725689,M√¢con,m con
StopArea:OCE87725705,M√¢con - Loch√© TGV,m con loch tgv
StopArea:OCE87725713,Cr√™ches-sur-Sa√¥ne,cr ches sur sa ne
StopArea:OCE87725721,Pontanevaux,pontanevaux
StopArea:OCE87725739,Roman√®che-Thorins-Maison Blanche,roman che thorins maison blanche
StopArea:OCE87725804,Pont-de-Veyle,pont de veyle
StopArea:OCE87725812,St-Jean-sur-Veyle,st jean sur veyle
StopArea:OCE87725820,Vonnas,vonnas
StopArea:OCE87725838,M√©z√©riat,m z riat
StopArea:OCE87725846,Polliat,polliat
StopArea:OCE87725895,√âchirolles,achirolles
StopArea:OCE87726000,Saint-√âtienne Ch√¢teaucreux,saint atienne ch teaucreux
StopArea:OCE87726083,Domfessel Abri Rue Principale,domfessel abri rue principale
StopArea:OCE87726091,Lorentzen Rue principale,lorentzen rue principale
StopArea:OCE87726158,Saint-√âtienne La Terrasse,saint atienne la terrasse
StopArea:OCE87726174,Saint-√âtienne Le Clapier,saint atienne le clapier
StopArea:OCE87726190,Saint-√âtienne Bellevue,saint atienne bellevue
StopArea:OCE87726208,Veauche - Saint-Galmier,veauche saint galmier
StopArea:OCE87726216,Bouth√©on,bouth on
StopArea:OCE87726232,La Fouillouse,la fouillouse
StopArea:OCE87726307,Saint-Chamond,saint chamond
StopArea:OCE87726331,Rive-de-Gier,rive de gier
StopArea:OCE87726406,Andr√©zieux,andr zieux
StopArea:OCE87726414,Bonson,bonson
StopArea:OCE87726422,Sury-le-Comtal,sury le comtal
StopArea:OCE87726430,Saint-Romain-le-Puy,saint romain le puy
StopArea:OCE87726448,Montbrison,montbrison
StopArea:OCE87726471,Bo√´n,bo n
StopArea:OCE87726703,La Ricamarie,la ricamarie
StopArea:OCE87726711,Le Chambon-Feugerolles,le chambon feugerolles
StopArea:OCE87726729,Firminy,firminy
StopArea:OCE87726737,Fraisses - Unieux,fraisses unieux
StopArea:OCE87726760,Aurec,aurec
StopArea:OCE87726778,Bas - Monistrol,bas monistrol
StopArea:OCE87726786,Pont de Lignon,pont de lignon
StopArea:OCE87726794,Beauzac,beauzac
StopArea:OCE87726802,Roanne,roanne
StopArea:OCE87726828,Le Coteau,le coteau
StopArea:OCE87726851,Saint-Jodard,saint jodard
StopArea:OCE87726869,Balbigny,balbigny
StopArea:OCE87726877,Feurs,feurs
StopArea:OCE87726885,Montrond-les-Bains,montrond les bains
StopArea:OCE87726901,Saint-√âtienne Carnot,saint atienne carnot
StopArea:OCE87727735,Troyes Th√©√¢tre de Champagne,troyes th tre de champagne
StopArea:OCE87727743,Troyes Pont Vert,troyes pont vert
StopArea:OCE87727750,Saint-Ly√© Mantenay,saint ly mantenay
StopArea:OCE87727768,Saint Ly√© Gravi√®res,saint ly gravi res
StopArea:OCE87727776,Saint-Ly√© R√©gales,saint ly r gales
StopArea:OCE87727784,Payns √âglise,payns aglise
StopArea:OCE87727792,Payns Abri C√¥t√© Savi√®res,payns abri c t savi res
StopArea:OCE87727800,Savi√®res Arbre de la Libert√©,savi res arbre de la libert
StopArea:OCE87727818,Savi√®res Rue Saint-Gilles,savi res rue saint gilles
StopArea:OCE87727826,Fontaine-les-Gr√©s Mairie,fontaine les gr s mairie
StopArea:OCE87727834,Saint-Mesmin Place du Monument,saint mesmin place du monument
StopArea:OCE87727842,Saint-Mesmin Courlanges,saint mesmin courlanges
StopArea:OCE87727859,Maizi√®res la Grande Paroisse Pont de Clairvaux,maizi res la grande paroisse pont de clairvaux
StopArea:OCE87727867,Romilly-sur-Seine Centre Commercial,romilly sur seine centre commercial
StopArea:OCE87727875,Saint Pouange Lyc√©e Agricole,saint pouange lyc e agricole
StopArea:OCE87727883,Ville-sous-la-Fert√© Tramway,ville sous la fert tramway
StopArea:OCE87727891,Ville sous la Fert√© Four √† Chaux,ville sous la fert four chaux
StopArea:OCE87727909,Bar sur Aube Coll√©ge,bar sur aube coll ge
StopArea:OCE87727917,Amance la Ville au Bois Eglise,amance la ville au bois eglise
StopArea:OCE87727925,Amance Mairie/Ecole,amance mairie ecole
StopArea:OCE87728501,Saint-Fons,saint fons
StopArea:OCE87728584,Sarre-Union Rue des Roses,sarre union rue des roses
StopArea:OCE87728592,Herbitzheim Rue de Hambach,herbitzheim rue de hambach
StopArea:OCE87730994,Keskastel Rue de la Lib√©ration,keskastel rue de la lib ration
StopArea:OCE87731604,Celles-sur-Durolle Arr√™t des Cars,celles sur durolle arr t des cars
StopArea:OCE87731802,Saint-Georges-d'Aurac Bourg,saint georges d aurac bourg
StopArea:OCE87731828,Lachaud-Curmilhac,lachaud curmilhac
StopArea:OCE87731885,Alleyras,alleyras
StopArea:OCE87732008,Vichy,vichy
StopArea:OCE87732206,Saint-Germain-des-Foss√©s,saint germain des foss s
StopArea:OCE87732222,Bar-sur-Aube Lyc√©e,bar sur aube lyc e
StopArea:OCE87732297,Bayel Place du G.de Gaulle,bayel place du g de gaulle
StopArea:OCE87732404,Gannat,gannat
StopArea:OCE87732693,Chenimenil Filature,chenimenil filature
StopArea:OCE87733592,Gap Gare Routi√®re,gap gare routi re
StopArea:OCE87733733,Lucay-le-M√¢le Champ de Foire,lucay le m le champ de foire
StopArea:OCE87734004,Clermont-Ferrand,clermont ferrand
StopArea:OCE87734038,Royat - Chamali√®res,royat chamali res
StopArea:OCE87734046,Gerzat,gerzat
StopArea:OCE87734053,Riom - Ch√¢tel-Guyon,riom ch tel guyon
StopArea:OCE87734087,Pont-du-Ch√¢teau,pont du ch teau
StopArea:OCE87734103,Pontmort,pontmort
StopArea:OCE87734111,Aubiat,aubiat
StopArea:OCE87734129,Aigueperse,aigueperse
StopArea:OCE87734152,Sarli√®ve - Cournon,sarli ve cournon
StopArea:OCE87734160,Le Cendre - Orcet,le cendre orcet
StopArea:OCE87734178,Les Martres-de-Veyre,les martres de veyre
StopArea:OCE87734186,Vic-le-Comte,vic le comte
StopArea:OCE87734194,Parent - Coudes - Champeix,parent coudes champeix
StopArea:OCE87734202,Issoire,issoire
StopArea:OCE87734228,Le Breuil-sur-Couze,le breuil sur couze
StopArea:OCE87734244,Brassac-les-Mines - Sainte-Florine,brassac les mines sainte florine
StopArea:OCE87734251,Arvant,arvant
StopArea:OCE87734269,Brioude,brioude
StopArea:OCE87734293,Paulhaguet,paulhaguet
StopArea:OCE87734301,Saint-Georges-d'Aurac,saint georges d aurac
StopArea:OCE87734319,Langeac,langeac
StopArea:OCE87734335,Monistrol-d'Allier,monistrol d allier
StopArea:OCE87734343,Chapeauroux,chapeauroux
StopArea:OCE87734350,Langogne,langogne
StopArea:OCE87734368,Luc,luc
StopArea:OCE87734426,Vertaizon,vertaizon
StopArea:OCE87734442,Lezoux,lezoux
StopArea:OCE87734459,Pont de Dore,pont de dore
StopArea:OCE87734475,Thiers,thiers
StopArea:OCE87734491,Chabreloche Pont Bascule,chabreloche pont bascule
StopArea:OCE87734673,Darsac,darsac
StopArea:OCE87734681,Borne (Haute-Loire),borne haute loire
StopArea:OCE87734699,Le Puy-en-Velay,le puy en velay
StopArea:OCE87734707,Lavo√ªte-sur-Loire,lavo te sur loire
StopArea:OCE87734715,Saint-Vincent le Ch√¢teau,saint vincent le ch teau
StopArea:OCE87734723,Vorey,vorey
StopArea:OCE87734731,Chamali√®res-sur-Loire,chamali res sur loire
StopArea:OCE87734749,Retournac,retournac
StopArea:OCE87734871,Massiac - Blesle,massiac blesle
StopArea:OCE87735522,Bouzonville Institut Providenc,bouzonville institut providenc
StopArea:OCE87737411,Les Aubrais Gare Routi√®re,les aubrais gare routi re
StopArea:OCE87737429,Paris-Austerlitz Routiere,paris austerlitz routiere
StopArea:OCE87737585,Sarreguemines Coll√®ge Fulrad,sarreguemines coll ge fulrad
StopArea:OCE87737593,Sarreguemines Lyc√©e Technique,sarreguemines lyc e technique
StopArea:OCE87737668,Sarreguemines Barth,sarreguemines barth
StopArea:OCE87737676,Sarreguemines Coll√®ge Himmelsberg,sarreguemines coll ge himmelsberg
StopArea:OCE87737684,Sarreguemines Coll√®ge Jean Jaur√®s,sarreguemines coll ge jean jaur s
StopArea:OCE87737692,Sarreguemines Lyc√©e Pange,sarreguemines lyc e pange
StopArea:OCE87737700,Sarreguemines Utzschneider,sarreguemines utzschneider
StopArea:OCE87737718,Hundling Stade,hundling stade
StopArea:OCE87737734,Farschviller Croisement Gare,farschviller croisement gare
StopArea:OCE87738096,Le Bouscat Sainte-Germaine,le bouscat sainte germaine
StopArea:OCE87739961,Saint-Symphorien-des-Bois,saint symphorien des bois
StopArea:OCE87741009,Chamb√©ry - Challes-les-Eaux,chamb ry challes les eaux
StopArea:OCE87741074,Culoz,culoz
StopArea:OCE87741108,Vions - Chanaz,vions chanaz
StopArea:OCE87741116,Chindrieux,chindrieux
StopArea:OCE87741132,Aix-les-Bains le Revard,aix les bains le revard
StopArea:OCE87741140,Viviers-du-Lac,viviers du lac
StopArea:OCE87741181,Montm√©lian,montm lian
StopArea:OCE87741223,Saint-Pierre-d'Albigny,saint pierre d albigny
StopArea:OCE87741231,Chamousset,chamousset
StopArea:OCE87741249,Aiton-Salle-Polyvalente,aiton salle polyvalente
StopArea:OCE87741256,Aiguebelle,aiguebelle
StopArea:OCE87741272,Argentine,argentine
StopArea:OCE87741280,√âpierre - Saint-L√©ger,apierre saint l ger
StopArea:OCE87741298,Les Chavannes-Saint-R√©my,les chavannes saint r my
StopArea:OCE87741306,Saint-Avre - La Chambre,saint avre la chambre
StopArea:OCE87741421,Aiguebelette-le-Lac,aiguebelette le lac
StopArea:OCE87741439,L√©pin-le-Lac - La Bauche,l pin le lac la bauche
StopArea:OCE87741447,La Bridoire,la bridoire
StopArea:OCE87741454,Saint-B√©ron - La Bridoire,saint b ron la bridoire
StopArea:OCE87741462,Domessin-le-Bonnard,domessin le bonnard
StopArea:OCE87741470,Pont-de-Beauvoisin,pont de beauvoisin
StopArea:OCE87741496,Les Abrets - Fitilieu,les abrets fitilieu
StopArea:OCE87741504,Virieu-le-Grand - Belley,virieu le grand belley
StopArea:OCE87741611,Gr√©sy-sur-Is√®re,gr sy sur is re
StopArea:OCE87741629,Frontenex,frontenex
StopArea:OCE87741645,Albertville,albertville
StopArea:OCE87741678,La Bathie,la bathie
StopArea:OCE87741686,C√©vins-√©changeur,c vins changeur
StopArea:OCE87741694,Notre-Dame de Brian√ßon,notre dame de brian on
StopArea:OCE87741702,La L√©ch√®re les Bains Petit Coeur,la l ch re les bains petit coeur
StopArea:OCE87741710,Aigueblanche-Centre,aigueblanche centre
StopArea:OCE87741728,Mo√ªtiers-Salins-Brides-les-B.,mo tiers salins brides les b
StopArea:OCE87741769,Aime - La Plagne,aime la plagne
StopArea:OCE87741777,Landry,landry
StopArea:OCE87741793,Bourg-Saint-Maurice,bourg saint maurice
StopArea:OCE87742007,Modane,modane
StopArea:OCE87742015,Noir√©table Place Passeli√®re,noir table place passeli re
StopArea:OCE87742056,Grenoble Cit√© Internationale,grenoble cit internationale
StopArea:OCE87742197,Schirmeck Cit√© Scolaire,schirmeck cit scolaire
StopArea:OCE87742221,Ch√¢lons-en-Champagne Marne,ch lons en champagne marne
StopArea:OCE87742247,Aubou√© Centre,aubou centre
StopArea:OCE87742254,Hatrize Centre,hatrize centre
StopArea:OCE87742262,Toulon Sainte-Musse,toulon sainte musse
StopArea:OCE87742320,Saint-Jean-de-Maurienne Arvan,saint jean de maurienne arvan
StopArea:OCE87742361,Saint-Michel - Valloire,saint michel valloire
StopArea:OCE87743005,Bourg-en-Bresse,bourg en bresse
StopArea:OCE87743104,La Vavrette Tossiat RD1075,la vavrette tossiat rd1075
StopArea:OCE87743112,Saint-Martin-du-Mont,saint martin du mont
StopArea:OCE87743120,Pont-d'Ain,pont d ain
StopArea:OCE87743146,Ambronay - Priay,ambronay priay
StopArea:OCE87743302,Ceyz√©riat,ceyz riat
StopArea:OCE87743328,Villereversure,villereversure
StopArea:OCE87743336,Simandre-sur-Suran,simandre sur suran
StopArea:OCE87743344,Cize - Bolozon,cize bolozon
StopArea:OCE87743351,Nurieux Gare,nurieux gare
StopArea:OCE87743526,Bellignat,bellignat
StopArea:OCE87743534,Oyonnax,oyonnax
StopArea:OCE87743591,Molinges Village,molinges village
StopArea:OCE87743633,Saint-Claude,saint claude
StopArea:OCE87743716,Amb√©rieu-en-Bugey,amb rieu en bugey
StopArea:OCE87743740,Saint-Rambert-en-Bugey,saint rambert en bugey
StopArea:OCE87743757,Tenay - Hauteville,tenay hauteville
StopArea:OCE87743872,Le Mans H√¥pital-Universit√©,le mans h pital universit
StopArea:OCE87744011,Colombey-les-Belles Mairie,colombey les belles mairie
StopArea:OCE87744078,Saint-Gervais-les-Bains,saint gervais les bains
StopArea:OCE87744177,Ancenis Bis,ancenis bis
StopArea:OCE87744235,Ch√¢tenois Coll√®ge,ch tenois coll ge
StopArea:OCE87744243,Orl√©ans Avenue de Paris,orl ans avenue de paris
StopArea:OCE87745000,Bellegarde,bellegarde
StopArea:OCE87745380,Pougny - Chancy,pougny chancy
StopArea:OCE87745414,Valleiry,valleiry
StopArea:OCE87745430,Saint-Julien-en-Genevois,saint julien en genevois
StopArea:OCE87745497,Annemasse,annemasse
StopArea:OCE87745588,Machilly,machilly
StopArea:OCE87745596,Bons-en-Chablais,bons en chablais
StopArea:OCE87745620,Perrignier,perrignier
StopArea:OCE87745646,Thonon-les-Bains,thonon les bains
StopArea:OCE87745679,√âvian-les-Bains,avian les bains
StopArea:OCE87745828,Seyssel - Corbonod,seyssel corbonod
StopArea:OCE87746008,Annecy,annecy
StopArea:OCE87746107,Gr√©sy-sur-Aix,gr sy sur aix
StopArea:OCE87746115,Albens,albens
StopArea:OCE87746149,Rumilly,rumilly
StopArea:OCE87746206,Pringy,pringy
StopArea:OCE87746248,Groisy - Thorens - La Caille,groisy thorens la caille
StopArea:OCE87746305,La Roche-sur-Foron,la roche sur foron
StopArea:OCE87746313,Saint-Pierre-en-Faucigny,saint pierre en faucigny
StopArea:OCE87746339,Bonneville,bonneville
StopArea:OCE87746347,Marignier,marignier
StopArea:OCE87746370,Cluses,cluses
StopArea:OCE87746412,Magland,magland
StopArea:OCE87746438,Sallanches - Combloux - Meg√®ve,sallanches combloux meg ve
StopArea:OCE87746479,Saint-Gervais-les-Bains-Le Fayet,saint gervais les bains le fayet
StopArea:OCE87746511,Reignier,reignier
StopArea:OCE87746701,Chedde,chedde
StopArea:OCE87746719,Servoz,servoz
StopArea:OCE87746727,Vaudagne,vaudagne
StopArea:OCE87746735,Viaduc sainte-Marie,viaduc sainte marie
StopArea:OCE87746743,Les Houches,les houches
StopArea:OCE87746750,Taconnaz,taconnaz
StopArea:OCE87746768,Les Bossons,les bossons
StopArea:OCE87746776,Les P√©lerins,les p lerins
StopArea:OCE87746784,Chamonix-Mont-Blanc,chamonix mont blanc
StopArea:OCE87746792,Paris-Montparnasse Point Rencontre Groupes,paris montparnasse point rencontre groupes
StopArea:OCE87746800,Epernon Gare Routi√®re,epernon gare routi re
StopArea:OCE87746818,Les Moussoux,les moussoux
StopArea:OCE87746826,Les Praz de Chamonix,les praz de chamonix
StopArea:OCE87746834,Les Tines,les tines
StopArea:OCE87746842,La Joux,la joux
StopArea:OCE87746859,Argenti√®re,argenti re
StopArea:OCE87746867,Montroc le Planet,montroc le planet
StopArea:OCE87746875,Vallorcine,vallorcine
StopArea:OCE87746883,Le Buet,le buet
StopArea:OCE87746891,Maintenon Gare Routi√®re,maintenon gare routi re
StopArea:OCE87746909,Saint-Piat Gare Routi√®re,saint piat gare routi re
StopArea:OCE87746917,Jouy Gare Routi√®re,jouy gare routi re
StopArea:OCE87746925,La Villette-Saint Prest Gare Routi√®re,la villette saint prest gare routi re
StopArea:OCE87746933,Chartres Gare Rue Nicole,chartres gare rue nicole
StopArea:OCE87747006,Grenoble,grenoble
StopArea:OCE87747121,Troyes Qu√©bec,troyes qu bec
StopArea:OCE87747147,Troyes H√¥pital Simone Veil,troyes h pital simone veil
StopArea:OCE87747170,Pont-Sainte-Marie Arcis Magasins,pont sainte marie arcis magasins
StopArea:OCE87747188,Vou√© Mairie,vou mairie
StopArea:OCE87747196,Arcis-sur-Aube Rue de Ch√¢lons,arcis sur aube rue de ch lons
StopArea:OCE87747204,Virieu sur Bourbre,virieu sur bourbre
StopArea:OCE87747212,Ch√¢bons,ch bons
StopArea:OCE87747220,Le Grand-Lemps,le grand lemps
StopArea:OCE87747246,Rives,rives
StopArea:OCE87747253,Mailly-le-Camp Garage,mailly le camp garage
StopArea:OCE87747261,Sommesous Nationale,sommesous nationale
StopArea:OCE87747279,R√©aumont - Saint-Cassien,r aumont saint cassien
StopArea:OCE87747287,Voiron,voiron
StopArea:OCE87747295,Vatry Rue Principale,vatry rue principale
StopArea:OCE87747303,Ch√¢lons-en-Champagne Tissier,ch lons en champagne tissier
StopArea:OCE87747329,Moirans,moirans
StopArea:OCE87747337,Voreppe,voreppe
StopArea:OCE87747345,Ch√¢lons-en-Champagne Greta,ch lons en champagne greta
StopArea:OCE87747352,Saint-√âgr√®ve Saint-Robert,saint agr ve saint robert
StopArea:OCE87747360,Reims Gouraud,reims gouraud
StopArea:OCE87747378,Reims Saint-Symphorien,reims saint symphorien
StopArea:OCE87747402,Grenoble Universit√©s - Gi√®res,grenoble universit s gi res
StopArea:OCE87747451,Brignoud,brignoud
StopArea:OCE87747477,Goncelin,goncelin
StopArea:OCE87747493,Pontcharra sur Br√©da,pontcharra sur br da
StopArea:OCE87747535,Jarrie - Vizille,jarrie vizille
StopArea:OCE87747568,Saint-Georges-de-Commiers,saint georges de commiers
StopArea:OCE87747576,Vif,vif
StopArea:OCE87747592,Monestier-de-Clermont,monestier de clermont
StopArea:OCE87747626,Clelles - Mens,clelles mens
StopArea:OCE87747667,Lus-la-Croix-Haute,lus la croix haute
StopArea:OCE87747691,Moirans la Galifette,moirans la galifette
StopArea:OCE87747881,Wissembourg Lyc√©e Stanislas,wissembourg lyc e stanislas
StopArea:OCE87748350,Talence-M√©doquine,talence m doquine
StopArea:OCE87748376,Hundling H√¥tel de Ville,hundling h tel de ville
StopArea:OCE87748525,La Pelleti√®re Cr√©pieux-la-Pape (arr√™t Tcl),la pelleti re cr pieux la pape arr t tcl
StopArea:OCE87748731,Poussay Rue de Mirecourt,poussay rue de mirecourt
StopArea:OCE87748749,Rorschwihr Cimeti√®re,rorschwihr cimeti re
StopArea:OCE87749382,Ancelle Pr√© Joubert T√©l√©si√®ge,ancelle pr joubert t l si ge
StopArea:OCE87749622,Serre Chevalier Pr√©long,serre chevalier pr long
StopArea:OCE87749747,Saint-L√©ger-les-M√©l√®zes le Village,saint l ger les m l zes le village
StopArea:OCE87749788,Saint-Chaffrey Mairie,saint chaffrey mairie
StopArea:OCE87751008,Marseille Saint-Charles,marseille saint charles
StopArea:OCE87751081,Marseille Blancarde,marseille blancarde
StopArea:OCE87751206,Sisteron,sisteron
StopArea:OCE87751230,Ch√¢teau-Arnoux-Saint-Auban,ch teau arnoux saint auban
StopArea:OCE87751271,La Brillanne - Oraison,la brillanne oraison
StopArea:OCE87751321,Manosque - Gr√©oux-les-Bains,manosque gr oux les bains
StopArea:OCE87751362,Pertuis,pertuis
StopArea:OCE87751370,Meyrargues,meyrargues
StopArea:OCE87751404,Aix-en-Provence,aix en provence
StopArea:OCE87751420,Gardanne,gardanne
StopArea:OCE87751438,Simiane,simiane
StopArea:OCE87751529,L'Ariane La Trinit√©,l ariane la trinit
StopArea:OCE87751602,L'Estaque,l estaque
StopArea:OCE87751701,Saint-Marcel,saint marcel
StopArea:OCE87751719,La Pomme,la pomme
StopArea:OCE87751743,La Penne-sur-Huveaune,la penne sur huveaune
StopArea:OCE87751750,Aubagne,aubagne
StopArea:OCE87751776,Cassis,cassis
StopArea:OCE87751784,La Ciotat-Ceyreste,la ciotat ceyreste
StopArea:OCE87751800,Sept√®mes,sept mes
StopArea:OCE87751826,Saint-Antoine,saint antoine
StopArea:OCE87751842,Sainte-Marthe en Provence,sainte marthe en provence
StopArea:OCE87752394,Docelles Monument,docelles monument
StopArea:OCE87752410,Laval-sur-Vologne Rue de la Vologne,laval sur vologne rue de la vologne
StopArea:OCE87752675,Thionville Porte Saarlouis,thionville porte saarlouis
StopArea:OCE87752899,Pont-de-Claix l'√âtoile,pont de claix l atoile
StopArea:OCE87752980,Montauban la Fobio,montauban la fobio
StopArea:OCE87752998,Lacourt-Saint-Pierre Talicous,lacourt saint pierre talicous
StopArea:OCE87753004,Miramas,miramas
StopArea:OCE87753020,Montech Lacoste,montech lacoste
StopArea:OCE87753038,Montech Pont Canal,montech pont canal
StopArea:OCE87753046,Montech Boulevard Lagal,montech boulevard lagal
StopArea:OCE87753061,Larrazet Avenue de Gascogne,larrazet avenue de gascogne
StopArea:OCE87753087,Beaumont-de-Lomagne Place Jean Moulin,beaumont de lomagne place jean moulin
StopArea:OCE87753095,Beaumont-de-Lomagne L.e.p,beaumont de lomagne l e p
StopArea:OCE87753202,Saint-Chamas,saint chamas
StopArea:OCE87753251,Rognac,rognac
StopArea:OCE87753285,Pas des Lanciers,pas des lanciers
StopArea:OCE87753418,Istres,istres
StopArea:OCE87753426,Rassuen,rassuen
StopArea:OCE87753442,Fos-sur-Mer,fos sur mer
StopArea:OCE87753459,Port-de-Bouc,port de bouc
StopArea:OCE87753491,Croix Sainte,croix sainte
StopArea:OCE87753509,Martigues,martigues
StopArea:OCE87753541,La Couronne Carro,la couronne carro
StopArea:OCE87753558,Sausset-les-Pins,sausset les pins
StopArea:OCE87753566,Carry-le-Rouet,carry le rouet
StopArea:OCE87753574,La Redonne Ensu√®s,la redonne ensu s
StopArea:OCE87753582,Niolon,niolon
StopArea:OCE87753657,Arles,arles
StopArea:OCE87753681,Saint-Martin-de-Crau,saint martin de crau
StopArea:OCE87753707,Orgon,orgon
StopArea:OCE87753715,S√©nas,s nas
StopArea:OCE87753731,Lamanon,lamanon
StopArea:OCE87753764,Salon,salon
StopArea:OCE87754192,Dossenheim-sur-Zinsel Pressoir,dossenheim sur zinsel pressoir
StopArea:OCE87754549,Mon Id√©e,mon id e
StopArea:OCE87754911,Boen Parc Lignon,boen parc lignon
StopArea:OCE87754929,Mailly-le-Camp Camp Militaire,mailly le camp camp militaire
StopArea:OCE87755009,Toulon,toulon
StopArea:OCE87755140,Onet-le-Ch√¢teau Route de S√©v√©rac,onet le ch teau route de s v rac
StopArea:OCE87755215,Saint-Cyr Les Lecques - La Cadi√®re,saint cyr les lecques la cadi re
StopArea:OCE87755223,Bandol,bandol
StopArea:OCE87755231,Ollioules - Sanary-sur-Mer,ollioules sanary sur mer
StopArea:OCE87755264,La Seyne - Six Fours,la seyne six fours
StopArea:OCE87755306,La Garde,la garde
StopArea:OCE87755314,La Pauline,la pauline
StopArea:OCE87755330,Solli√®s-Pont,solli s pont
StopArea:OCE87755355,Cuers - Pierrefeu,cuers pierrefeu
StopArea:OCE87755363,Puget-Ville,puget ville
StopArea:OCE87755371,Carnoules,carnoules
StopArea:OCE87755389,Pignans,pignans
StopArea:OCE87755397,Gonfaron,gonfaron
StopArea:OCE87755405,Le Luc - Le Cannet,le luc le cannet
StopArea:OCE87755421,Vidauban,vidauban
StopArea:OCE87755447,Les Arcs - Draguignan,les arcs draguignan
StopArea:OCE87755611,La Crau,la crau
StopArea:OCE87755629,Hy√®res,hy res
StopArea:OCE87756056,Nice-Ville,nice ville
StopArea:OCE87756254,Nice Saint-Augustin,nice saint augustin
StopArea:OCE87756304,Villeneuve-Loubet-Plage,villeneuve loubet plage
StopArea:OCE87756320,Cagnes-sur-Mer,cagnes sur mer
StopArea:OCE87756338,Cros de Cagnes,cros de cagnes
StopArea:OCE87756346,Saint-Laurent-du-Var,saint laurent du var
StopArea:OCE87756353,Nice Riquier,nice riquier
StopArea:OCE87756361,Villefranche-sur-Mer,villefranche sur mer
StopArea:OCE87756379,Beaulieu-sur-Mer,beaulieu sur mer
StopArea:OCE87756387,√àze,aze
StopArea:OCE87756395,Cap-d'Ail,cap d ail
StopArea:OCE87756403,Monaco-Monte-Carlo,monaco monte carlo
StopArea:OCE87756460,Roquebrune-Cap-Martin,roquebrune cap martin
StopArea:OCE87756478,Carnoles,carnoles
StopArea:OCE87756486,Menton,menton
StopArea:OCE87756494,Menton Garavan,menton garavan
StopArea:OCE87756767,La Trinit√© Victor,la trinit victor
StopArea:OCE87756775,Drap - Cantaron,drap cantaron
StopArea:OCE87756783,Peillon - Sainte-Th√®cle,peillon sainte th cle
StopArea:OCE87756791,Peille,peille
StopArea:OCE87756809,L'Escar√®ne,l escar ne
StopArea:OCE87756817,Tou√´t-de-l'Escar√®ne,tou t de l escar ne
StopArea:OCE87756825,Sospel,sospel
StopArea:OCE87756833,Breil-sur-Roya,breil sur roya
StopArea:OCE87756858,Fontan - Saorge,fontan saorge
StopArea:OCE87756866,Saint-Dalmas de Tende,saint dalmas de tende
StopArea:OCE87756874,La Brigue,la brigue
StopArea:OCE87756882,Tende,tende
StopArea:OCE87757419,La Wantzenau √âglise,la wantzenau aglise
StopArea:OCE87757500,Fr√©jus,fr jus
StopArea:OCE87757526,Saint-Rapha√´l Valescure,saint rapha l valescure
StopArea:OCE87757534,Boulouris sur Mer,boulouris sur mer
StopArea:OCE87757542,Le Dramont,le dramont
StopArea:OCE87757559,Agay,agay
StopArea:OCE87757567,Anth√©or Cap Roux,anth or cap roux
StopArea:OCE87757575,Le Trayas,le trayas
StopArea:OCE87757583,Th√©oule-sur-Mer,th oule sur mer
StopArea:OCE87757591,Mandelieu-la-Napoule,mandelieu la napoule
StopArea:OCE87757617,Cannes La Bocca,cannes la bocca
StopArea:OCE87757625,Cannes,cannes
StopArea:OCE87757641,Golfe Juan Vallauris,golfe juan vallauris
StopArea:OCE87757666,Juan les Pins,juan les pins
StopArea:OCE87757674,Antibes,antibes
StopArea:OCE87757690,Biot,biot
StopArea:OCE87757724,Grasse,grasse
StopArea:OCE87757732,Ranguin,ranguin
StopArea:OCE87757740,La Fray√®re,la fray re
StopArea:OCE87757757,Le Bosquet,le bosquet
StopArea:OCE87759290,Picon Busserine,picon busserine
StopArea:OCE87759316,Saint-Joseph le Castellas,saint joseph le castellas
StopArea:OCE87761007,Valence Ville,valence ville
StopArea:OCE87761056,Oingt Route de Saint-Laurent,oingt route de saint laurent
StopArea:OCE87761064,Val-d'Oingt - Saint-Laurent-d'Oingt Bourg,val d oingt saint laurent d oingt bourg
StopArea:OCE87761072,Val-d'Oingt - Saint-Laurent-d'Oingt Gare,val d oingt saint laurent d oingt gare
StopArea:OCE87761106,Saint-Rambert-d'Albon,saint rambert d albon
StopArea:OCE87761130,Saint-Vallier sur Rh√¥ne,saint vallier sur rh ne
StopArea:OCE87761163,Tain-l'Hermitage - Tournon,tain l hermitage tournon
StopArea:OCE87761239,L'Isle-d'Abeau,l isle d abeau
StopArea:OCE87761247,Livron,livron
StopArea:OCE87761262,Loriol,loriol
StopArea:OCE87761270,Annonay-Gare Routi√®re,annonay gare routi re
StopArea:OCE87761460,Tournon-Centre,tournon centre
StopArea:OCE87761494,Saint-P√©ray,saint p ray
StopArea:OCE87761502,Soyons-Centre,soyons centre
StopArea:OCE87761510,Charmes-sur-Rh√¥ne-centre,charmes sur rh ne centre
StopArea:OCE87761528,Beauchastel-centre,beauchastel centre
StopArea:OCE87761650,Romans - Bourg-de-P√©age,romans bourg de p age
StopArea:OCE87761684,Saint-Hilaire - Saint-Nazaire,saint hilaire saint nazaire
StopArea:OCE87761718,Saint-Marcellin,saint marcellin
StopArea:OCE87761726,Vinay,vinay
StopArea:OCE87761742,Poli√©nas,poli nas
StopArea:OCE87761759,Tullins Fures,tullins fures
StopArea:OCE87761783,Crest,crest
StopArea:OCE87761817,Saillans,saillans
StopArea:OCE87761841,Die,die
StopArea:OCE87761874,Luc-en-Diois,luc en diois
StopArea:OCE87762583,Aguessac Bellevue,aguessac bellevue
StopArea:OCE87762906,Lyon Saint-Exup√©ry TGV,lyon saint exup ry tgv
StopArea:OCE87763003,Gap,gap
StopArea:OCE87763029,Valence TGV Rh√¥ne-Alpes Sud,valence tgv rh ne alpes sud
StopArea:OCE87763177,Griesbach-le-Bastberg √âglise,griesbach le bastberg aglise
StopArea:OCE87763250,Aspres-sur-Bu√´ch,aspres sur bu ch
StopArea:OCE87763300,Veynes D√©voluy,veynes d voluy
StopArea:OCE87763425,Chorges,chorges
StopArea:OCE87763466,Embrun,embrun
StopArea:OCE87763508,Mont-Dauphin - Guillestre,mont dauphin guillestre
StopArea:OCE87763557,L'Argenti√®re les √âcrins,l argenti re les acrins
StopArea:OCE87763607,Brian√ßon,brian on
StopArea:OCE87763722,Serres,serres
StopArea:OCE87763755,Laragne,laragne
StopArea:OCE87764001,Mont√©limar,mont limar
StopArea:OCE87764290,Donz√®re,donz re
StopArea:OCE87764308,Pierrelatte,pierrelatte
StopArea:OCE87764357,Boll√®ne la Croisi√®re,boll ne la croisi re
StopArea:OCE87764407,Le Pouzin Place Mar√©chal Leclerc,le pouzin place mar chal leclerc
StopArea:OCE87764472,Le Teil,le teil
StopArea:OCE87764555,Pont-Saint-Esprit,pont saint esprit
StopArea:OCE87764571,Bagnols-sur-C√®ze,bagnols sur c ze
StopArea:OCE87764712,Saint-Jean-le-Centenier Centre,saint jean le centenier centre
StopArea:OCE87764720,Villeneuve-de-Berg-Centre,villeneuve de berg centre
StopArea:OCE87765008,Avignon Centre,avignon centre
StopArea:OCE87765107,Orange,orange
StopArea:OCE87765180,Courth√©zon,courth zon
StopArea:OCE87765198,B√©darrides,b darrides
StopArea:OCE87765206,Sorgues - Ch√¢teauneuf-du-Pape,sorgues ch teauneuf du pape
StopArea:OCE87765354,Tarascon-sur-Rh√¥ne,tarascon sur rh ne
StopArea:OCE87765396,Erlon,erlon
StopArea:OCE87765404,Voyenne Ecole,voyenne ecole
StopArea:OCE87765412,Montfavet,montfavet
StopArea:OCE87765420,Mori√®res-l√®s-Avignon,mori res l s avignon
StopArea:OCE87765438,Saint-Saturnin-l√®s-Avignon,saint saturnin l s avignon
StopArea:OCE87765446,Gadagne,gadagne
StopArea:OCE87765453,Le Thor,le thor
StopArea:OCE87765479,L'Isle-sur-Sorgue - Fontaine-V,l isle sur sorgue fontaine v
StopArea:OCE87765503,Cavaillon,cavaillon
StopArea:OCE87765735,Carpentras,carpentras
StopArea:OCE87765818,Monteux,monteux
StopArea:OCE87765826,Entraigues-sur-la-Sorgue,entraigues sur la sorgue
StopArea:OCE87765941,Saint-Florentin Gare routi√®re,saint florentin gare routi re
StopArea:OCE87765990,Vallon-en-Sully March√© couvert,vallon en sully march couvert
StopArea:OCE87766824,Valen√ßay Coll√®ge Alain Fournier,valen ay coll ge alain fournier
StopArea:OCE87766832,Le Teil Rond-point B√©nistant,le teil rond point b nistant
StopArea:OCE87767269,Nances Maison du Lac,nances maison du lac
StopArea:OCE87767871,Saint-C√©saire V3,saint c saire v3
StopArea:OCE87768960,Contrex√©ville Centre,contrex ville centre
StopArea:OCE87773002,Montpellier Saint-Roch,montpellier saint roch
StopArea:OCE87773200,S√®te,s te
StopArea:OCE87773408,Lunel,lunel
StopArea:OCE87773424,Lunel-Viel,lunel viel
StopArea:OCE87773432,Valergues - Lansargues,valergues lansargues
StopArea:OCE87773457,Baillargues,baillargues
StopArea:OCE87773465,Saint-Aun√®s,saint aun s
StopArea:OCE87773515,Villeneuve-l√®s-Maguelone,villeneuve l s maguelone
StopArea:OCE87773531,Vic - Mireval,vic mireval
StopArea:OCE87773556,Frontignan,frontignan
StopArea:OCE87775007,N√Æmes Centre,n mes centre
StopArea:OCE87775023,Beaucaire,beaucaire
StopArea:OCE87775072,Saint-C√©saire,saint c saire
StopArea:OCE87775098,Milhaud,milhaud
StopArea:OCE87775106,Uchaud,uchaud
StopArea:OCE87775114,Verg√®ze - Codognan,verg ze codognan
StopArea:OCE87775130,Gallargues,gallargues
StopArea:OCE87775148,Chasserad√®s,chasserad s
StopArea:OCE87775171,La Bastide-St-Laurent-les-B.,la bastide st laurent les b
StopArea:OCE87775197,Villefort,villefort
StopArea:OCE87775213,G√©nolhac,g nolhac
StopArea:OCE87775221,Chamborigaud,chamborigaud
StopArea:OCE87775239,Sainte-C√©cile-d'Andorge,sainte c cile d andorge
StopArea:OCE87775247,La Levade,la levade
StopArea:OCE87775254,Grand-Combe la Pise,grand combe la pise
StopArea:OCE87775288,Al√®s,al s
StopArea:OCE87775346,Boucoiran,boucoiran
StopArea:OCE87775353,Nozi√®res - Brignon,nozi res brignon
StopArea:OCE87775361,Saint-Geni√®s-de-Malgoir√®s,saint geni s de malgoir s
StopArea:OCE87775379,Fons - Saint-Mamert,fons saint mamert
StopArea:OCE87775791,G√©n√©rac,g n rac
StopArea:OCE87775809,Beauvoisin,beauvoisin
StopArea:OCE87775817,Vauvert,vauvert
StopArea:OCE87775825,Le Cailar,le cailar
StopArea:OCE87775833,Aimargues,aimargues
StopArea:OCE87775841,Saint-Laurent-d'Aigouze,saint laurent d aigouze
StopArea:OCE87775858,Aigues-Mortes,aigues mortes
StopArea:OCE87775866,Le Grau-du-Roi,le grau du roi
StopArea:OCE87781005,B√©ziers,b ziers
StopArea:OCE87781062,Port-la-Nouvelle,port la nouvelle
StopArea:OCE87781088,Leucate la Franqui,leucate la franqui
StopArea:OCE87781104,Narbonne,narbonne
StopArea:OCE87781161,Coursan,coursan
StopArea:OCE87781260,Vias,vias
StopArea:OCE87781278,Agde,agde
StopArea:OCE87781294,Marseillan Plage,marseillan plage
StopArea:OCE87781534,Montpaon,montpaon
StopArea:OCE87781542,Ceilhes - Roqueredonde,ceilhes roqueredonde
StopArea:OCE87781559,Les Cabrils,les cabrils
StopArea:OCE87781575,Lunas,lunas
StopArea:OCE87781583,Le Bousquet-d'Orb,le bousquet d orb
StopArea:OCE87781609,B√©darieux,b darieux
StopArea:OCE87781666,Magalas,magalas
StopArea:OCE87782607,Clermont la Pardieu,clermont la pardieu
StopArea:OCE87783001,Millau,millau
StopArea:OCE87783175,Saint-Flour - Chaudes-Aigues,saint flour chaudes aigues
StopArea:OCE87783241,Saint-Ch√©ly-d'Apcher,saint ch ly d apcher
StopArea:OCE87783266,Aumont-Aubrac,aumont aubrac
StopArea:OCE87783282,Marvejols,marvejols
StopArea:OCE87783290,Chirac,chirac
StopArea:OCE87783308,Le Monastier,le monastier
StopArea:OCE87783324,Banassac - La Canourgue,banassac la canourgue
StopArea:OCE87783340,Campagnac - Saint-Geniez,campagnac saint geniez
StopArea:OCE87783365,S√©v√©rac-le-Ch√¢teau,s v rac le ch teau
StopArea:OCE87783399,Aguessac Avenue de Causses,aguessac avenue de causses
StopArea:OCE87783423,Saint-Georges-de-Luzen√ßon,saint georges de luzen on
StopArea:OCE87783431,Saint-Rome-de-Cernon,saint rome de cernon
StopArea:OCE87783456,Tournemire - Roquefort,tournemire roquefort
StopArea:OCE87783514,Les Salelles,les salelles
StopArea:OCE87783530,Chanac,chanac
StopArea:OCE87783548,Le Bruel,le bruel
StopArea:OCE87783563,Barjac,barjac
StopArea:OCE87783605,Mende,mende
StopArea:OCE87783647,Bagnols - Chadenet,bagnols chadenet
StopArea:OCE87783654,Allenc,allenc
StopArea:OCE87783670,Belvezet,belvezet
StopArea:OCE87783753,Berthol√®ne Centre,berthol ne centre
StopArea:OCE87783795,Severac-D-Aveyron Recoules,severac d aveyron recoules
StopArea:OCE87784009,Perpignan,perpignan
StopArea:OCE87784157,Salses,salses
StopArea:OCE87784173,Rivesaltes,rivesaltes
StopArea:OCE87784207,Elne,elne
StopArea:OCE87784231,Argel√®s-sur-Mer,argel s sur mer
StopArea:OCE87784256,Collioure,collioure
StopArea:OCE87784264,Port-Vendres,port vendres
StopArea:OCE87784298,Banyuls-sur-Mer,banyuls sur mer
StopArea:OCE87784512,Le Soler,le soler
StopArea:OCE87784520,Saint-F√©liu-d'Avall,saint f liu d avall
StopArea:OCE87784546,Millas,millas
StopArea:OCE87784561,Ille-sur-T√™t,ille sur t t
StopArea:OCE87784611,Vin√ßa,vin a
StopArea:OCE87784629,Marquixanes,marquixanes
StopArea:OCE87784637,Prades - Molitg-les-Bains,prades molitg les bains
StopArea:OCE87784660,Ria,ria
StopArea:OCE87784686,Villefranche - Vernet-les-Bains,villefranche vernet les bains
StopArea:OCE87784702,Serdinya,serdinya
StopArea:OCE87784710,Joncet,joncet
StopArea:OCE87784728,Olette - Canaveilles les Bains,olette canaveilles les bains
StopArea:OCE87784736,Nyer,nyer
StopArea:OCE87784744,Thu√®s les Bains,thu s les bains
StopArea:OCE87784751,Thu√®s Caren√ßa,thu s caren a
StopArea:OCE87784769,Fontp√©drouse St-Thomas les B.,fontp drouse st thomas les b
StopArea:OCE87784777,Sauto,sauto
StopArea:OCE87784785,Plan√®s,plan s
StopArea:OCE87784793,Mont-Louis - La Cabanasse,mont louis la cabanasse
StopArea:OCE87784801,Bolqu√®re - Eyne,bolqu re eyne
StopArea:OCE87784819,Font-Romeu-Odeillo-Via,font romeu odeillo via
StopArea:OCE87784827,Estavar,estavar
StopArea:OCE87784835,Saillagouse,saillagouse
StopArea:OCE87784843,Err,err
StopArea:OCE87784850,Sainte-L√©ocadie,sainte l ocadie
StopArea:OCE87784868,Oss√©ja,oss ja
StopArea:OCE87784876,Bourg-Madame,bourg madame
StopArea:OCE87784884,Ur les Escaldes,ur les escaldes
StopArea:OCE87784892,Bena Fanes,bena fanes
StopArea:OCE87785006,Cerb√®re,cerb re
StopArea:OCE87936989,Buswiller-Eglise,buswiller eglise
StopArea:OCE88140010,Bruxelles Midi,bruxelles midi
StopArea:OCE88716050,ERQUELINNES,erquelinnes
StopArea:OCE88716472,ERQUELINNES-VILLAGE,erquelinnes village
StopArea:OCE88716621,SOLRE-SUR-SAMBRE,solre sur sambre
StopArea:OCE88716704,LABUISSIERE,labuissiere
StopArea:OCE88716886,FONTAINE-VALMONT,fontaine valmont
StopArea:OCE88717124,LOBBES,lobbes
StopArea:OCE88718114,THUIN,thuin
StopArea:OCE88718296,HOURPES,hourpes
StopArea:OCE88718379,LANDELIES,landelies
StopArea:OCE88718528,MARCHIENNE-ZONE,marchienne zone
StopArea:OCE88720090,Charleroi-Central,charleroi central
StopArea:OCE88810000,Mons,mons
StopArea:OCE88850010,Tournai,tournai
StopArea:OCE88850685,FROYENNES,froyennes
StopArea:OCE88857040,Mouscron,mouscron
StopArea:OCE88960080,Courtrai,courtrai
